FLASER 180 1.33 1.38 1.33 1.38 1.38 1.43 1.43 1.38 1.38 1.27 1.02 0.97 0.92 0.9 0.9 0.9 0.95 0.95 0.95 0.95 0.95 1 1 0.95 1 1.05 1 1 1.05 1 1.05 1.05 1.1 1.1 1.1 1.15 1.15 1.2 2.6 2.65 2.65 2.75 6.92 10.32 10.52 10.72 4.87 4.57 3.57 3.62 3.72 3.82 3.87 4.02 4.02 4.12 4.07 4.02 4.12 4.27 4.27 4.22 4.22 4.17 4.17 4.12 4.12 4.37 4.72 5.02 5.27 7.37 7.87 8.42 9.07 9.72 10.77 12.77 13.32 14.07 14.02 13.97 13.97 14.12 14.12 14.12 14.12 14.17 14.17 13.97 13.92 13.97 13.97 14.02 12.92 11.22 10.12 9.52 8.42 7.87 7.27 6.97 6.67 6.17 5.92 5.57 5.47 5.12 4.82 4.52 4.47 4.27 4.07 4.02 3.97 3.77 3.52 3.47 3.42 3.42 3.32 3.17 3.02 3.02 2.97 2.92 2.77 2.77 1 0.95 0.95 0.9 0.9 0.9 0.85 0.85 0.8 0.85 0.8 0.8 0.75 0.85 0.8 0.75 0.75 0.75 0.7 0.75 0.75 0.75 0.75 0.7 0.65 0.7 0.7 0.7 0.7 0.72 0.72 0.77 0.87 0.97 1.07 1.12 1.25 1.28 1.23 1.18 1.05 1.15 1.23 1.28 1.23 1.28 1.23 1.23 1.23 1.28 1.23 1.23 1.00824 -0.0167813 0.00595701 1.00824 -0.0167813 0.00595701 -0.445999 pippo -0.445999
FLASER 180 1.94 1.99 1.99 1.99 1.99 2.04 1.99 1.99 2.04 2.04 2.04 2.09 2.09 2.09 2.09 2.09 2.09 2.14 2.14 2.14 2.21 7.91 7.91 7.81 6.01 5.96 5.61 5.61 5.81 5.81 5.96 6.11 2.86 2.81 2.81 2.86 2.91 2.96 3.06 3.06 3.11 3.11 3.21 3.26 3.21 3.16 3.16 3.16 3.26 3.31 3.41 3.31 3.31 3.26 3.26 3.21 3.21 3.11 3.16 3.31 3.51 3.61 3.81 3.96 4.06 5.61 5.91 6.16 6.56 6.91 7.31 7.71 8.21 8.81 9.61 11.71 11.81 12.61 12.96 12.91 12.91 12.86 13.11 13.06 13.06 13.01 13.01 13.06 13.06 12.86 12.86 12.86 12.91 12.91 11.86 10.71 9.51 8.81 7.96 7.36 6.96 6.61 6.16 5.76 5.61 5.11 5.11 4.76 4.51 4.36 4.21 4.01 3.96 3.86 3.76 3.51 3.51 3.36 3.26 3.26 3.01 3.06 3.01 2.86 2.91 2.76 2.71 2.56 2.56 2.56 2.51 2.46 2.46 2.36 2.36 2.31 2.26 2.16 2.16 2.16 24.61 2.11 2.11 2.06 24.91 2.01 1.96 2.01 2.06 1.96 1.86 1.86 1.86 1.86 1.91 2.11 1.81 1.81 1.81 1.86 27.76 1.76 1.81 1.76 1.76 21.51 1.81 1.71 1.71 1.66 1.71 1.71 1.96 1.81 1.71 1.71 1.71 1.71 1.94 1.76 2.16565 -0.0177446 0.00852101 2.16565 -0.0177446 0.00852101 -0.913 pippo -0.913
FLASER 180 2.51 2.51 2.56 7.21 2.49 2.49 2.49 2.44 2.61 7.36 7.41 2.41 2.36 2.36 2.36 2.41 2.41 2.46 2.51 2.51 2.51 2.51 2.51 2.61 2.61 2.61 2.66 2.61 2.61 2.51 2.49 2.54 2.59 2.64 2.69 2.66 2.66 2.61 2.56 2.51 2.46 2.46 2.41 2.36 2.36 2.41 2.46 2.56 2.61 2.66 2.86 2.86 2.96 3.01 3.11 3.21 3.26 4.41 4.61 4.76 4.91 5.11 5.31 5.51 5.81 6.06 6.36 6.71 7.11 7.41 7.86 8.46 9.16 10.76 10.81 11.66 11.96 11.91 11.91 11.86 11.86 12.01 12.01 12.06 12.06 12.01 12.01 12.01 11.76 11.81 11.86 11.86 11.91 11.41 10.26 9.11 8.56 7.91 7.36 6.91 6.26 5.91 5.71 5.21 5.06 4.76 4.71 4.51 4.16 4.16 3.96 3.81 3.61 3.66 3.46 3.36 3.21 3.11 3.11 2.96 3.01 2.81 2.81 2.66 2.66 2.66 2.56 2.51 3.16 2.41 2.41 3.26 2.16 2.21 2.21 3.51 2.16 2.11 2.11 23.76 2.06 2.01 2.06 24.11 1.96 1.91 1.91 1.91 1.91 51.11 1.86 1.81 1.81 1.81 51.06 1.81 1.71 1.71 1.76 27.66 1.81 1.71 1.61 1.66 1.66 1.71 21.51 21.36 1.66 1.66 1.66 1.66 26.66 22.91 1.61 1.66 1.66 1.61 21.16 1.66 3.18767 -0.022352 0.023828 3.18767 -0.022352 0.023828 -1.343 pippo -1.343
FLASER 180 2.31 2.31 2.26 2.16 2.19 2.19 2.19 2.24 2.19 2.19 2.24 2.16 2.11 2.01 1.91 1.81 1.81 1.71 1.71 1.76 1.76 1.81 1.81 1.86 1.91 1.91 1.91 1.96 1.96 2.11 2.11 2.11 2.06 2.11 2.16 2.21 2.31 2.26 2.31 2.36 2.36 2.41 3.11 3.16 3.26 3.41 3.46 3.56 3.61 3.71 3.81 3.86 4.01 4.11 4.26 4.41 4.51 4.71 4.86 5.01 5.26 5.46 5.66 5.96 6.11 6.41 6.81 7.16 7.61 8.11 9.71 9.71 10.01 10.76 10.91 10.86 10.81 10.81 10.81 10.96 10.91 10.96 10.96 10.91 10.96 10.91 10.91 10.71 10.71 10.76 10.76 10.81 10.81 10.21 9.11 8.36 7.51 6.91 6.61 6.21 5.76 5.56 5.16 4.91 4.66 4.51 4.16 4.11 3.96 3.81 3.61 3.61 3.46 3.31 3.16 3.11 3.16 2.91 16.36 2.81 2.66 2.61 2.61 51.06 2.51 2.51 2.41 2.36 2.51 2.21 2.16 2.21 2.31 2.31 2.06 2.06 2.39 2.06 1.96 1.96 2.39 1.96 1.81 1.81 1.86 1.86 2.49 1.86 1.76 1.76 1.81 2.96 51.06 1.71 1.66 1.66 22.56 22.01 1.66 1.61 1.56 1.61 1.56 1.66 26.86 23.21 1.61 1.56 1.61 1.56 21.16 21.26 1.56 1.56 1.56 1.56 22.86 26.46 1.61 1.56 4.31781 -0.012578 0.0388555 4.31781 -0.012578 0.0388555 -1.82 pippo -1.82
FLASER 180 1.76 1.79 1.76 1.74 1.79 1.79 1.76 1.96 1.86 1.81 1.76 1.81 1.81 1.86 1.81 1.86 2.39 2.39 2.39 2.44 2.44 2.49 2.49 2.54 2.54 2.59 2.64 2.64 2.69 2.74 2.79 2.79 2.84 2.89 2.89 2.96 2.96 3.06 3.16 3.16 3.21 3.26 3.31 3.36 3.51 3.56 3.61 3.71 3.81 3.91 3.96 4.11 4.16 4.36 4.51 4.61 4.76 4.91 5.11 5.26 5.46 5.71 5.91 6.16 6.56 6.91 7.31 8.61 8.61 8.66 9.21 9.81 9.81 9.81 9.76 9.71 9.71 9.66 9.91 9.86 9.86 9.81 9.86 9.81 9.81 9.81 9.66 9.61 9.61 9.61 9.66 9.71 9.71 9.16 8.46 7.46 6.91 6.41 6.16 5.71 5.26 5.11 4.71 4.56 4.36 4.11 4.01 3.86 3.66 3.51 3.41 3.31 3.11 3.06 3.01 2.91 2.81 2.76 2.61 2.61 2.56 2.51 2.46 2.41 2.36 2.31 2.21 2.11 2.11 2.16 2.11 2.01 2.01 2.01 2.01 1.91 1.91 1.91 1.86 1.76 1.76 1.76 1.76 1.96 1.76 1.71 1.71 1.66 1.84 1.84 1.61 1.66 1.56 1.61 1.74 1.69 1.56 1.51 1.51 1.56 1.51 1.69 1.79 1.74 1.46 1.46 1.51 1.56 1.89 1.94 1.51 1.51 1.46 1.46 21.31 26.36 26.41 1.46 1.46 1.41 5.42061 0.0160025 0.0468998 5.42061 0.0160025 0.0468998 4.29497e+09 pippo 4.29497e+09
FLASER 180 2.3 2.3 2.3 2.3 2.3 2.3 2.3 2.3 2.35 2.35 2.4 2.4 2.4 2.4 2.4 2.45 2.45 2.45 2.45 2.5 2.5 2.55 2.55 2.55 2.55 2.6 2.65 2.7 2.7 2.75 2.75 2.8 2.8 2.85 2.87 2.92 2.92 2.97 3.07 3.07 3.17 3.22 3.27 3.32 3.37 3.42 3.52 3.57 3.67 3.72 3.77 3.97 4.02 4.12 4.22 4.27 4.42 4.57 4.72 4.87 5.02 5.22 5.42 5.67 5.92 6.17 7.82 7.72 7.72 7.77 7.82 8.32 8.77 8.87 8.82 8.82 8.82 8.72 8.72 8.77 8.87 8.87 8.87 8.82 8.77 8.77 8.77 8.77 8.82 8.62 8.62 8.62 8.62 8.67 8.67 8.67 8.67 8.17 7.42 6.87 6.37 5.92 5.27 5.17 4.82 4.57 4.27 4.27 4.07 3.72 3.72 3.52 3.42 3.17 3.17 3.07 3.02 2.87 2.72 2.67 2.72 2.57 2.52 2.52 2.37 2.67 2.22 2.22 2.22 14.62 2.12 2.07 51.07 1.97 1.92 1.97 51.07 1.82 1.77 1.82 1.77 51.07 51.07 1.72 1.67 1.72 21.27 21.57 1.62 1.62 1.57 22.22 22.37 1.62 1.52 1.47 1.52 1.52 1.62 27.62 27.57 1.52 1.47 1.42 1.47 21.37 2.22 2.02 1.42 1.42 1.42 1.47 1.75 1.7 1.65 1.42 1.32 1.37 1.37 1.42 6.42934 0.0136978 -0.0106739 6.42934 0.0136978 -0.0106739 4.29497e+09 pippo 4.29497e+09
FLASER 180 2.34 2.34 2.34 2.34 2.39 2.34 2.34 2.34 2.39 2.39 2.39 2.39 2.39 2.44 2.44 2.44 2.44 2.49 2.54 2.54 2.49 2.54 2.59 2.59 2.64 2.69 2.64 2.69 2.69 2.79 2.84 2.79 2.84 2.89 2.94 2.96 3.01 3.06 3.11 3.11 3.16 3.26 3.31 3.36 3.41 3.46 3.56 3.61 3.66 3.76 3.86 3.96 4.06 4.16 4.26 4.36 4.51 4.71 4.86 5.01 5.21 5.36 6.96 6.86 6.76 6.76 6.81 6.91 7.26 7.56 7.91 7.86 7.86 7.81 7.81 7.71 7.71 7.66 7.91 7.86 7.86 7.81 7.81 7.81 7.76 7.81 7.76 7.76 7.81 7.61 7.61 7.56 7.61 7.61 7.61 7.66 7.71 7.71 7.16 6.61 6.01 5.51 5.26 4.96 4.71 4.36 4.26 4.06 3.81 3.66 3.56 3.31 3.31 3.16 3.16 2.96 2.76 2.76 2.86 2.61 2.71 2.51 2.51 2.31 2.31 2.31 2.21 2.16 2.16 2.11 2.06 2.01 3.81 1.86 1.86 1.81 1.91 16.46 1.76 1.76 1.76 17.11 1.71 1.66 1.66 1.66 21.01 20.86 1.51 1.51 1.51 1.56 1.51 21.76 21.91 1.56 1.46 1.46 1.46 23.06 26.41 27.36 1.41 1.41 1.41 1.46 51.06 21.26 1.41 1.36 1.31 1.31 1.36 1.36 1.36 22.61 26.21 22.61 1.41 1.36 7.41738 -0.0225094 -0.00713008 7.41738 -0.0225094 -0.00713008 4.29497e+09 pippo 4.29497e+09
FLASER 180 2.34 2.39 2.39 2.39 2.39 2.39 2.39 2.39 2.44 2.39 2.44 2.44 2.44 2.44 2.49 2.49 2.49 2.54 2.54 2.59 2.59 2.59 2.64 2.64 2.69 2.69 2.74 2.74 2.79 2.84 2.84 2.81 2.84 2.89 2.91 3.01 3.01 3.06 3.16 3.16 3.21 3.26 3.36 3.41 3.46 3.51 3.61 3.66 3.76 3.86 3.96 4.11 4.16 4.31 4.41 6.26 6.16 6.11 5.96 5.91 5.86 5.81 5.91 5.91 6.16 6.41 6.66 7.01 6.96 6.91 6.86 6.81 6.76 6.76 6.71 6.71 6.86 6.86 6.91 6.81 6.81 6.76 6.76 6.76 6.81 6.81 6.81 6.81 6.76 6.56 6.56 6.56 6.56 6.56 6.56 6.61 6.66 6.66 6.71 6.11 5.71 5.51 5.06 4.86 4.51 4.31 4.01 3.91 3.81 3.51 3.41 3.41 3.26 3.11 2.91 2.86 2.76 2.71 2.61 2.61 2.46 2.41 2.31 2.31 2.21 2.31 2.11 2.11 2.21 1.96 1.96 1.91 1.91 2.49 1.81 1.81 1.81 2.54 1.76 1.71 1.71 2.66 2.66 1.56 1.56 1.56 1.56 1.56 20.91 20.41 1.51 1.46 1.46 1.51 21.06 21.21 1.41 1.36 1.41 1.41 21.76 22.36 1.41 1.41 1.36 1.31 1.31 1.31 1.36 21.26 20.96 20.91 1.36 1.31 1.31 1.31 22.56 26.21 22.61 1.36 8.43447 -0.0363718 -0.00831409 8.43447 -0.0363718 -0.00831409 4.29497e+09 pippo 4.29497e+09
FLASER 180 2.39 2.44 2.39 2.39 2.44 2.44 2.44 2.49 2.49 2.49 2.49 2.49 2.49 2.49 2.49 2.54 2.54 2.54 2.59 2.59 2.64 2.64 2.64 2.64 2.69 2.74 2.74 2.74 2.79 2.84 2.86 2.91 2.96 2.96 3.01 3.06 3.11 3.16 3.21 3.26 3.31 3.36 3.51 3.51 3.61 3.66 5.91 5.81 5.76 5.36 5.31 5.21 5.11 5.11 5.01 5.01 5.01 5.01 5.11 5.31 5.51 5.71 5.86 6.06 6.01 5.96 5.91 5.91 5.81 5.81 5.81 5.71 5.76 5.91 5.91 5.86 5.96 5.86 5.86 5.86 5.81 5.81 5.81 5.81 5.81 5.81 5.81 5.81 5.56 5.56 5.56 5.56 5.56 5.56 5.61 5.61 5.61 5.66 5.66 5.66 5.41 5.06 4.61 4.56 4.21 4.06 3.81 3.56 3.51 3.36 3.26 3.01 2.96 2.91 2.81 2.76 2.66 2.51 2.46 2.46 2.36 2.26 2.26 2.21 2.21 2.06 2.01 2.01 2.01 1.91 1.91 1.86 1.86 1.76 1.76 1.71 1.76 1.66 1.61 1.56 1.61 1.61 1.61 1.56 1.56 1.56 1.51 1.51 1.69 1.46 1.41 1.46 1.41 1.41 1.89 1.41 1.36 1.31 1.31 1.36 1.31 1.31 1.41 22.36 1.41 1.31 1.31 1.31 1.31 1.31 26.36 21.21 1.26 1.31 1.26 1.26 1.31 26.21 26.21 1.31 9.42799 -0.0751094 0.00870441 9.42799 -0.0751094 0.00870441 4.29497e+09 pippo 4.29497e+09
FLASER 180 2.39 2.34 2.34 2.34 2.29 2.34 2.34 2.34 2.34 2.34 2.29 2.34 2.34 2.34 2.34 2.34 2.39 2.34 2.39 2.39 2.39 2.39 2.44 2.44 2.44 2.49 2.44 2.44 2.49 2.49 2.49 2.54 2.59 2.64 2.59 2.69 2.69 2.69 2.74 2.79 2.79 2.84 2.84 2.84 2.86 2.91 3.21 5.66 5.56 5.41 5.36 5.16 5.11 5.01 4.66 4.56 4.46 4.36 4.26 4.26 4.11 4.16 4.16 4.11 4.21 4.26 4.41 4.56 4.66 4.76 4.91 5.06 5.11 5.01 5.01 4.96 4.91 4.91 4.86 4.81 4.76 4.76 4.76 4.86 4.96 4.91 4.91 4.91 4.86 4.86 4.81 4.81 4.81 4.81 4.81 4.81 4.81 4.76 4.76 4.76 4.81 4.76 4.51 4.56 4.56 4.56 4.56 4.56 4.56 4.61 4.61 4.66 4.66 4.71 4.71 4.71 4.51 4.26 4.11 3.96 3.71 3.56 3.41 3.21 3.16 3.11 2.91 2.91 2.71 2.66 2.61 2.51 2.46 2.41 2.36 2.31 2.21 2.16 2.16 2.11 2.06 2.01 2.01 1.96 1.91 1.86 1.86 1.76 1.71 1.71 1.76 1.71 1.66 1.66 1.66 1.61 1.56 1.56 1.56 1.56 1.56 1.51 1.51 1.51 1.51 1.36 1.41 1.46 1.41 1.41 1.41 1.41 1.41 1.36 1.41 1.36 1.36 1.36 1.31 1.36 10.4283 -0.17998 -0.213693 10.4283 -0.17998 -0.213693 4.29497e+09 pippo 4.29497e+09
FLASER 180 2.14 2.09 2.09 2.09 2.09 2.09 2.09 2.04 2.09 2.04 2.04 2.04 2.04 2.04 1.99 2.04 2.04 2.04 2.04 2.09 2.04 2.09 2.04 2.04 2.09 2.09 2.09 2.09 2.14 2.09 2.09 2.09 2.14 2.14 2.14 2.14 2.14 2.14 2.36 2.31 6.61 6.36 6.16 5.86 5.66 5.46 5.31 5.06 4.96 4.76 4.66 4.51 4.36 4.26 4.21 3.76 3.61 3.51 3.41 3.36 3.26 3.16 3.11 3.11 3.16 3.06 3.06 3.11 3.21 3.21 3.31 3.41 3.46 3.56 3.66 3.71 3.81 3.91 4.06 3.96 3.96 3.91 3.81 3.81 3.81 3.76 3.76 3.71 3.66 3.66 3.66 3.61 3.61 3.76 3.86 3.81 3.81 3.76 3.76 3.71 3.71 3.71 3.71 3.71 3.66 3.71 3.71 3.71 3.66 3.66 3.66 3.66 3.71 3.71 3.66 3.71 3.71 3.51 3.51 3.51 3.51 3.56 3.56 3.56 3.56 3.61 3.61 3.66 3.66 3.66 3.71 3.76 3.76 3.81 3.86 3.71 3.61 3.41 3.36 3.31 3.21 3.11 3.01 2.91 2.86 2.91 2.76 2.76 2.61 2.61 2.46 2.41 2.41 2.46 2.31 2.31 2.26 2.21 2.16 2.16 10.51 2.06 2.01 2.06 2.06 11.16 1.96 1.96 1.91 13.66 1.96 1.91 1.81 1.86 15.21 1.86 1.71 1.71 1.76 1.76 11.5057 -0.553593 -0.388938 11.5057 -0.553593 -0.388938 4.29497e+09 pippo 4.29497e+09
FLASER 180 1.84 1.79 1.79 1.79 1.79 1.74 1.74 1.74 1.79 1.74 1.74 1.69 1.74 1.74 1.81 1.86 1.86 1.86 15.71 15.66 36.85 36.76 36.86 29.46 24.91 20.36 15.81 11.76 10.31 9.31 8.46 7.76 7.16 6.66 6.21 5.81 5.46 5.11 4.86 4.61 4.36 4.16 3.96 3.81 3.66 3.56 2.86 2.76 2.61 2.51 2.41 2.31 2.21 2.26 2.36 2.26 2.26 2.19 2.19 2.19 2.24 2.29 2.34 2.34 2.39 2.44 2.49 2.54 2.59 2.66 2.66 2.71 2.76 2.81 2.91 2.91 3.01 3.01 2.99 2.91 2.86 2.89 2.86 2.84 2.79 2.84 2.79 2.69 2.74 2.74 2.69 2.69 2.64 2.64 2.64 2.56 2.76 2.81 2.81 2.76 2.76 2.81 2.76 2.76 2.76 2.76 2.76 2.76 2.76 2.76 2.71 2.71 2.71 2.71 2.71 2.76 2.76 2.76 2.76 2.81 2.76 2.81 2.81 2.81 2.81 2.86 2.81 2.86 2.81 2.69 2.64 2.69 2.69 2.66 2.71 2.81 2.81 2.81 2.81 2.86 2.91 2.91 2.96 3.01 3.01 3.06 3.11 3.16 3.21 3.16 3.11 3.06 3.01 2.96 2.86 2.81 2.81 2.76 2.71 2.66 2.56 2.61 2.56 2.56 2.41 2.41 2.41 2.36 2.36 2.36 2.31 2.26 2.26 2.26 2.21 2.21 2.16 2.11 2.16 2.16 12.4322 -0.937254 -0.417339 12.4322 -0.937254 -0.417339 4.29497e+09 pippo 4.29497e+09
FLASER 180 2.04 2.09 2.04 1.99 1.94 1.89 1.89 1.84 1.84 1.79 1.79 1.74 1.69 1.69 1.64 1.64 1.64 1.59 1.59 1.54 1.54 1.59 1.56 1.61 1.66 1.71 1.61 1.61 1.71 1.81 1.96 2.11 2.21 3.31 3.51 3.71 4.01 4.36 4.71 5.11 5.66 6.36 7.11 8.11 9.46 11.51 15.36 15.31 15.41 36.51 36.51 36.41 29.06 20.26 19.91 10.71 8.86 7.71 6.81 6.11 5.51 5.06 4.66 4.31 3.96 3.71 3.46 3.26 2.31 2.21 2.01 1.91 1.76 1.66 1.61 1.66 1.71 1.61 1.64 1.59 1.59 1.59 1.59 1.59 1.64 1.64 1.69 1.69 1.69 1.74 1.74 1.79 1.84 1.84 1.89 1.89 1.94 1.99 2.04 2.09 2.04 2.09 2.19 2.24 2.26 2.26 2.31 2.39 2.34 2.29 2.29 2.29 2.24 2.24 2.24 2.19 2.19 2.14 2.14 2.09 2.09 2.09 2.09 2.09 2.04 2.04 2.04 2.04 1.99 2.04 2.04 1.99 1.96 2.21 2.16 2.16 2.16 2.21 2.21 2.21 2.21 2.16 2.16 2.16 2.16 2.21 2.21 2.21 2.21 2.21 2.21 2.21 2.21 2.26 2.21 2.21 2.26 2.26 2.31 2.31 2.36 2.36 2.36 2.36 2.41 2.41 2.41 2.46 2.46 2.49 2.51 2.41 2.36 2.34 2.39 2.39 2.44 2.44 2.54 2.54 12.9549 -1.33363 -0.940009 12.9549 -1.33363 -0.940009 4.29497e+09 pippo 4.29497e+09
FLASER 180 4.95 4.45 4.05 3.65 3.3 3.05 2.85 2.65 2.5 2.35 2.25 2.15 2.05 1.98 1.93 1.8 1.75 1.75 1.65 1.58 1.5 1.53 1.48 1.43 1.38 1.33 1.33 1.28 1.23 1.28 1.28 1.33 1.3 1.35 1.3 1.3 1.25 1.25 1.25 1.35 1.35 1.4 1.4 1.5 1.5 1.55 1.6 1.65 1.7 1.75 1.8 1.95 2.58 2.58 2.68 2.7 2.8 2.95 3.05 3.2 3.35 3.45 3.6 3.85 4.1 4.35 4.6 4.9 5.25 5.75 6.2 6.75 7.45 8.2 9.35 10.75 14.75 14.75 14.7 51.05 35.9 35.85 35.85 28.45 23.9 18.5 9.05 7.35 6.35 5.5 4.85 4.35 3.95 3.6 3.25 3 2.8 1.8 1.55 1.45 1.4 1.25 1.15 1.1 1 0.95 0.95 0.95 1 1.05 0.95 0.95 0.95 0.98 0.93 0.93 0.88 0.88 0.93 0.93 0.93 0.93 0.98 0.98 0.98 1.03 1.08 1.03 1.08 1.13 1.08 1.13 1.18 1.18 1.18 1.28 1.28 1.28 1.33 1.38 1.43 1.43 1.48 1.48 1.5 1.55 1.6 1.7 1.75 1.83 1.83 1.78 1.83 1.78 1.83 1.78 1.78 1.78 1.73 1.73 1.73 1.73 1.73 1.73 1.73 1.73 1.73 1.68 1.68 1.68 1.68 1.68 1.73 1.73 1.68 1.68 1.68 1.68 1.68 1.73 13.1704 -2.01213 -1.48894 13.1704 -2.01213 -1.48894 4.29497e+09 pippo 4.29497e+09
FLASER 180 0.81 0.86 0.86 0.86 0.86 0.86 0.86 0.86 0.86 0.86 0.86 0.86 0.91 0.91 0.91 0.91 0.91 0.91 0.96 0.91 0.96 0.96 0.96 0.96 0.96 0.96 1.01 1.01 0.96 1.01 1.06 1.06 1.06 1.06 1.11 1.44 1.47 1.47 1.47 1.49 1.49 1.54 1.57 1.59 1.59 1.59 1.64 1.69 1.69 1.74 1.77 1.79 1.84 1.84 1.89 1.94 1.99 2.04 2.14 2.14 2.19 2.24 2.29 2.39 2.49 2.54 2.64 2.76 2.86 2.96 3.11 3.26 3.41 3.56 3.76 3.96 4.21 4.41 4.81 5.16 5.51 5.96 7.16 7.16 7.96 8.96 13.76 13.71 13.66 13.71 51.06 34.81 34.86 35.01 27.46 22.91 18.31 9.46 8.11 6.66 5.81 5.11 4.56 4.16 3.81 3.51 3.21 3.01 2.86 2.61 2.46 2.36 2.21 2.11 1.96 1.91 1.81 1.79 1.66 1.66 1.59 1.54 1.49 1.49 1.39 1.39 1.29 1.29 1.24 1.19 1.19 1.19 1.14 0.76 0.76 0.76 0.66 0.66 0.66 0.66 0.61 0.66 0.66 0.61 0.61 0.61 0.56 0.56 0.56 0.51 0.56 0.56 0.56 0.51 0.51 0.51 0.51 0.46 0.51 0.46 0.46 0.46 0.46 0.51 0.46 0.46 0.46 0.46 0.46 0.46 0.46 0.46 0.46 0.41 0.41 0.41 0.41 0.41 0.41 0.46 13.0599 -2.98297 -1.6799 13.0599 -2.98297 -1.6799 4.29497e+09 pippo 4.29497e+09
FLASER 180 1.12 1.12 1.12 1.12 1.12 1.12 1.12 1.12 1.12 1.12 1.17 1.12 1.17 1.17 1.12 1.17 1.17 1.14 1.17 1.14 1.17 1.19 1.14 1.17 1.19 1.19 1.22 1.24 1.19 1.24 1.24 1.24 1.24 1.24 1.24 1.29 1.29 1.29 1.34 1.39 1.39 1.39 1.39 1.39 1.44 1.49 1.49 1.54 1.54 1.59 1.59 1.64 1.69 1.74 1.74 1.79 1.79 1.89 1.94 1.94 2.04 2.09 2.14 2.24 2.29 2.34 2.44 2.51 2.64 2.66 2.76 2.86 3.06 3.16 3.36 3.51 3.76 4.01 4.26 4.51 4.81 5.21 6.11 6.16 6.76 7.51 8.46 12.71 12.71 12.66 12.61 51.06 33.86 33.81 33.81 28.26 26.41 11.01 10.91 8.46 7.21 6.26 5.66 5.06 4.56 4.16 3.81 3.56 3.36 3.11 2.91 2.76 2.56 2.46 2.36 2.21 2.11 2.01 1.99 1.94 1.84 1.79 1.74 1.69 1.64 1.59 1.54 1.49 1.44 1.39 1.39 1.34 1.29 1.24 1.24 1.19 1.19 1.14 1.14 1.09 1.04 1.09 1.04 1.04 1.04 0.99 0.99 0.94 0.94 0.99 0.94 0.94 0.94 0.89 0.94 0.89 0.89 0.89 0.89 0.84 0.84 0.84 0.84 0.84 0.84 0.84 0.84 0.79 0.79 0.79 0.84 0.79 0.79 0.79 0.82 0.82 0.82 0.82 0.82 0.82 12.9297 -3.99301 -1.71074 12.9297 -3.99301 -1.71074 4.29497e+09 pippo 4.29497e+09
FLASER 180 1.02 0.97 1.02 1.02 1.02 0.97 0.97 0.97 0.97 1.02 1.02 1.02 1.07 0.99 1.02 0.99 0.99 1.04 0.99 0.99 1.07 1.07 1.07 1.09 1.09 1.09 1.04 1.09 1.09 1.09 1.14 1.14 1.14 1.14 1.14 1.14 1.14 1.19 1.19 1.24 1.24 1.24 1.24 1.29 1.29 1.34 1.34 1.34 1.39 1.39 1.39 1.44 1.49 1.49 1.54 1.59 1.64 1.64 1.69 1.74 1.79 1.84 1.89 1.94 1.99 2.04 2.14 2.14 2.24 2.29 2.39 2.51 2.61 2.71 2.86 3.01 3.11 3.31 3.51 3.66 3.96 4.16 5.11 5.06 5.31 5.81 6.36 7.11 11.66 11.66 11.61 11.56 11.56 51.06 46.81 32.71 46.76 25.61 25.41 19.86 15.56 11.66 7.71 6.96 6.06 5.46 4.91 4.56 4.21 3.91 3.66 3.41 3.21 3.06 2.81 2.76 2.61 2.51 2.36 2.31 2.24 2.14 2.09 1.99 1.94 1.84 1.79 1.74 1.69 1.69 1.64 1.59 1.54 1.54 1.49 1.44 1.39 1.34 1.39 1.34 1.34 1.24 1.24 1.29 1.19 1.19 1.19 1.19 1.14 1.14 1.09 1.09 1.04 1.09 1.04 1.04 1.04 1.04 1.04 1.02 1.04 0.99 0.99 0.99 0.97 1.02 0.94 0.99 0.94 0.94 0.97 0.94 0.97 0.97 0.94 0.92 0.97 0.89 0.92 0.92 12.7611 -5.03245 -1.74131 12.7611 -5.03245 -1.74131 4.29497e+09 pippo 4.29497e+09
FLASER 180 0.92 0.87 0.87 0.87 0.92 0.87 0.87 0.92 0.92 0.92 0.84 0.89 0.89 0.89 0.89 0.89 0.89 0.89 0.89 0.89 0.94 0.94 0.94 0.94 0.89 0.94 0.94 0.94 0.99 0.99 0.99 1.04 0.99 0.99 0.99 1.04 1.04 1.09 1.09 1.09 1.09 1.14 1.14 1.19 1.19 1.19 1.24 1.24 1.29 1.29 1.34 1.34 1.34 1.39 1.44 1.49 1.49 1.54 1.59 1.64 1.69 1.74 1.79 1.84 1.94 1.99 2.09 2.09 2.19 2.29 2.44 2.51 2.61 2.76 2.86 3.01 3.91 3.99 3.99 3.96 4.26 4.66 5.11 5.56 6.21 10.61 10.61 10.56 10.56 10.51 51.06 31.71 31.66 31.66 29.96 24.31 19.76 15.21 14.36 11.01 10.56 6.86 6.21 5.86 5.31 4.81 4.46 4.11 3.86 3.66 3.41 3.26 3.11 3.01 2.86 2.76 2.61 2.51 2.41 2.34 2.29 2.19 2.14 2.09 1.99 1.94 1.89 1.89 1.84 1.79 1.74 1.74 1.64 1.59 1.59 1.54 1.54 1.49 1.49 1.44 1.44 1.39 1.34 1.34 1.34 1.29 1.29 1.29 1.29 1.24 1.24 1.19 1.24 1.19 1.19 1.19 1.14 1.14 1.14 1.14 1.09 1.14 1.09 1.09 1.09 1.09 1.09 1.04 1.09 1.07 1.07 1.07 1.09 1.07 1.04 1.07 1.07 1.07 1.07 1.02 12.5291 -6.14019 -1.68435 12.5291 -6.14019 -1.68435 4.29497e+09 pippo 4.29497e+09
FLASER 180 0.92 0.92 0.87 0.92 0.92 0.92 0.92 0.92 0.97 0.94 0.89 0.89 0.89 0.94 0.99 0.99 0.94 0.94 0.99 0.99 0.99 0.99 0.99 0.99 0.99 0.99 1.04 1.04 1.04 1.09 1.04 1.09 1.09 1.14 1.19 1.14 1.19 1.19 1.19 1.24 1.24 1.24 1.24 1.29 1.39 1.34 1.39 1.44 1.44 1.49 1.49 1.54 1.64 1.64 1.69 1.74 1.79 1.79 1.89 1.94 2.04 2.09 2.14 2.71 2.81 2.91 3.04 3.04 3.04 3.04 3.16 3.31 3.56 3.81 4.06 4.41 4.81 5.26 5.86 9.56 9.61 9.56 9.56 9.56 9.51 51.06 44.61 30.66 44.56 26.11 23.31 18.66 14.21 14.16 10.46 9.56 9.56 6.16 5.41 4.91 4.81 4.56 4.04 3.81 3.71 3.41 3.19 3.06 2.89 2.76 2.71 2.56 2.46 2.39 2.34 2.16 2.16 2.09 2.09 1.94 1.89 1.89 1.84 1.74 1.74 1.69 1.69 1.64 1.54 1.54 1.49 1.49 1.44 1.39 1.44 1.39 1.39 1.39 1.34 1.29 1.29 1.24 1.29 1.24 1.19 1.19 1.19 1.19 1.14 1.14 1.14 1.14 1.14 1.14 1.14 1.09 1.09 1.09 1.09 1.09 1.09 1.04 1.04 1.04 1.04 1.02 1.04 1.07 1.07 1.04 1.02 1.07 1.02 1.07 1.07 1.07 1.02 1.07 1.02 1.02 12.4699 -7.14074 -1.59805 12.4699 -7.14074 -1.59805 4.29497e+09 pippo 4.29497e+09
FLASER 180 0.92 0.92 0.92 0.97 0.92 0.92 0.97 0.97 0.97 0.94 0.97 0.94 0.94 0.94 0.99 0.94 0.94 0.94 0.99 0.99 1.04 1.04 0.99 0.99 0.99 1.04 0.99 1.04 1.04 1.09 1.09 1.14 1.14 1.14 1.19 1.14 1.19 1.19 1.19 1.24 1.19 1.29 1.29 1.29 1.34 1.44 1.64 1.69 1.74 1.79 1.79 1.84 1.89 1.94 1.99 2.04 2.14 2.19 2.14 2.14 2.09 2.09 2.12 2.19 2.24 2.39 2.46 2.61 2.71 2.76 2.96 3.16 3.36 3.56 3.76 4.06 4.36 4.81 7.61 8.61 8.56 8.56 8.56 8.51 8.51 8.51 51.06 29.71 29.76 29.86 29.66 22.31 21.46 17.06 13.16 12.31 9.46 8.61 8.56 7.86 8.76 4.71 4.36 4.01 3.86 3.66 3.41 3.31 3.06 2.91 2.86 2.76 2.66 2.49 2.36 2.29 2.19 2.14 2.04 1.99 1.94 1.94 1.84 1.84 1.74 1.69 1.69 1.64 1.59 1.59 1.54 1.54 1.44 1.44 1.44 1.39 1.34 1.34 1.34 1.34 1.29 1.24 1.29 1.24 1.24 1.24 1.24 1.14 1.19 1.14 1.14 1.14 1.14 1.14 1.09 1.09 1.09 1.04 1.04 1.09 1.04 1.04 1.04 1.04 1.04 0.99 1.04 1.07 1.02 1.02 1.02 1.02 0.99 0.99 1.02 1.02 1.02 1.02 1.02 1.02 12.4061 -8.11903 -1.61582 12.4061 -8.11903 -1.61582 4.29497e+09 pippo 4.29497e+09
FLASER 180 1.07 1.07 1.12 1.12 1.12 1.12 1.12 1.12 1.17 1.17 1.14 1.14 1.17 1.14 1.17 1.14 1.14 1.14 1.19 1.19 1.19 1.19 1.19 1.24 1.19 1.24 1.19 1.24 1.24 1.29 1.29 1.29 1.29 1.34 1.34 1.34 1.39 1.36 1.34 1.34 1.34 1.29 1.29 1.29 1.24 1.29 1.34 1.39 1.39 1.39 1.44 1.49 1.49 1.54 1.59 1.64 1.64 1.74 1.79 1.84 1.89 1.94 1.99 2.09 2.19 2.24 2.34 2.41 2.51 2.61 2.76 2.91 3.06 3.26 3.46 3.71 5.81 7.66 6.66 7.61 7.56 7.56 7.56 7.56 7.51 7.46 7.56 10.51 51.06 42.56 28.61 42.61 23.06 21.26 16.71 16.71 12.16 11.16 10.46 7.96 7.56 7.61 6.81 7.71 7.81 3.86 3.66 3.41 3.26 3.06 2.94 2.91 2.81 2.71 2.59 2.51 2.41 2.36 2.19 2.14 2.14 1.99 1.94 1.94 1.94 1.89 1.84 1.79 1.74 1.64 1.56 1.54 1.54 1.49 1.49 1.44 1.44 1.39 1.34 1.29 1.29 1.29 1.29 1.29 1.24 1.19 1.24 1.19 1.19 1.19 1.14 1.14 1.14 1.09 1.09 1.14 1.09 1.09 1.09 1.09 1.09 1.04 1.04 1.04 1.04 1.04 0.99 1.04 0.99 0.99 1.02 1.02 0.99 1.04 1.02 1.07 1.07 1.02 1.02 1.07 12.3413 -9.16041 -1.65037 12.3413 -9.16041 -1.65037 4.29497e+09 pippo 4.29497e+09
FLASER 180 0.92 0.87 0.92 0.92 0.92 0.87 0.92 0.97 0.92 0.89 0.87 0.92 0.94 0.89 0.92 0.89 0.89 0.94 0.94 0.94 0.94 0.94 0.94 0.94 0.99 0.94 0.99 0.99 0.99 0.99 0.99 1.04 1.04 1.04 1.04 1.04 1.04 1.14 1.09 1.14 1.19 1.14 1.19 1.19 1.19 1.24 1.29 1.29 1.29 1.34 1.34 1.39 1.44 1.44 1.49 1.54 1.59 1.59 1.64 1.69 1.74 1.79 1.84 1.89 1.99 2.04 2.14 2.24 2.34 2.41 2.46 2.61 2.81 6.31 4.76 6.66 6.66 5.61 6.56 6.56 6.51 6.46 6.46 6.46 6.41 6.41 6.41 6.56 8.66 51.06 41.46 27.51 41.56 26.11 20.21 20.21 15.61 13.91 11.06 11.06 9.36 8.51 6.91 6.51 6.56 6.61 5.81 5.71 6.91 4.86 4.91 7.06 6.71 2.81 2.71 2.61 2.51 2.36 2.26 2.21 2.14 2.14 2.04 1.94 2.04 1.91 1.94 1.89 1.76 1.79 1.79 1.71 1.74 1.64 1.59 1.59 1.54 1.54 1.49 1.49 1.44 1.44 1.39 1.29 1.34 1.34 1.39 1.34 1.34 1.24 1.24 1.19 1.27 1.24 1.19 1.19 1.19 1.19 1.14 1.19 1.19 1.17 1.14 1.17 1.14 1.14 1.14 1.09 1.12 1.14 1.12 1.07 1.07 1.04 1.06 1.04 1.07 1.07 1.07 1.07 12.2181 -10.2205 -1.66673 12.2181 -10.2205 -1.66673 4.29497e+09 pippo 4.29497e+09
FLASER 180 0.81 0.81 0.81 0.86 0.81 0.86 0.81 0.81 0.86 0.86 0.86 0.81 0.86 0.86 0.83 0.83 0.86 0.86 0.83 0.88 0.83 0.83 0.88 0.88 0.88 0.88 0.93 0.88 0.93 0.93 0.93 0.93 0.93 0.98 0.98 0.98 0.98 0.98 1.03 1.03 1.03 1.08 1.08 1.08 1.08 1.13 1.13 1.18 1.23 1.23 1.23 1.23 1.28 1.33 1.33 1.38 1.43 1.43 1.48 1.53 1.58 1.63 1.68 1.68 2.05 2.8 2.9 5 5.05 4.9 5.25 4 3.65 5.15 5.55 5.6 4.5 5.5 5.45 5.45 5.4 5.4 5.35 5.35 5.35 5.3 5.3 5.3 5.35 6.9 9.5 26.45 40.4 26.5 40.4 26.45 19.1 18.35 14.55 14.55 10.1 10 9.1 8.2 8.55 6.3 5.85 5.5 5.45 5.5 5.6 5.6 4.6 5.9 5.95 5.95 5.3 3.8 5.7 5.6 5.65 5.75 3.5 3.2 3 2.95 3.25 3.25 1.93 1.83 1.83 1.78 1.68 1.73 1.63 1.63 1.58 1.53 1.53 1.53 1.48 1.43 1.43 1.38 1.38 1.38 1.38 1.33 1.33 1.28 1.28 1.28 1.26 1.26 1.28 1.28 1.23 1.23 1.26 1.23 1.26 1.23 1.23 1.23 1.18 1.18 1.18 1.18 1.18 1.13 1.18 1.13 1.16 1.21 1.13 1.16 1.16 1.13 1.13 1.13 12.0715 -11.3311 -1.68813 12.0715 -11.3311 -1.68813 4.29497e+09 pippo 4.29497e+09
FLASER 180 0.82 0.87 0.82 0.87 0.87 0.87 0.87 0.92 0.84 0.87 0.84 0.84 0.89 0.89 0.89 0.89 0.89 0.94 0.94 0.94 0.89 0.94 0.94 0.96 6.81 8.06 7.81 7.66 7.41 7.31 4.21 7.21 3.86 3.86 3.96 4.36 4.36 3.96 4.91 4.91 1.96 1.91 1.91 2.01 4.51 4.51 4.51 5.21 5.21 3.91 3.91 4.01 4.06 4.11 2.66 2.66 4.76 4.71 4.06 4.11 4.66 4.61 3.51 4.46 4.46 4.41 4.41 4.41 4.36 4.31 4.31 4.26 4.31 4.26 4.21 4.21 4.26 4.21 4.31 5.36 6.66 9.11 25.46 39.21 25.36 21.96 24.76 18.01 18.01 14.11 13.51 11.71 9.21 8.91 8.96 8.01 7.16 7.41 6.21 5.16 4.86 4.56 4.41 4.41 4.46 4.51 4.56 4.56 4.66 3.61 4.91 5.11 5.16 4.36 4.86 4.81 3.21 2.81 4.76 4.81 5.66 5.56 5.81 5.76 5.81 2.66 5.96 7.81 7.66 2.26 2.16 2.11 2.11 2.36 2.41 6.51 2.36 6.36 2.41 2.31 2.16 2.21 2.06 2.11 2.01 1.96 2.11 2.06 1.96 1.81 1.16 1.19 1.17 1.19 1.14 1.17 1.12 1.14 1.17 1.09 1.12 1.09 1.12 1.12 1.17 1.12 1.12 1.12 1.12 1.07 1.07 1.07 1.12 1.07 1.12 1.12 1.12 1.07 1.12 1.12 11.9744 -12.4378 -1.5328 11.9744 -12.4378 -1.5328 4.29497e+09 pippo 4.29497e+09
FLASER 180 1.61 1.56 1.61 1.56 1.61 1.56 1.61 1.46 1.41 1.41 1.46 1.46 1.41 10.41 10.31 1.81 6.31 3.76 3.41 2.01 3.41 3.91 3.86 3.81 3.36 3.46 4.41 4.36 4.31 4.21 2.11 4.31 4.31 4.41 3.81 3.81 3.81 1.81 1.91 1.96 3.16 3.21 3.21 3.21 3.16 3.11 3.61 3.66 3.96 3.91 3.11 3.16 2.61 2.61 3.66 3.61 3.61 3.56 3.51 3.46 3.51 3.41 3.36 3.36 3.31 3.31 3.31 3.31 3.26 3.26 3.21 3.16 3.21 3.16 3.16 3.19 3.31 3.76 4.31 5.01 5.96 7.36 9.86 24.26 38.16 24.36 38.21 16.31 17.96 16.91 16.06 12.36 11.46 10.71 8.01 7.86 7.86 6.96 7.56 6.21 6.21 5.21 5.01 4.16 3.91 3.71 3.56 3.46 3.39 3.44 3.44 3.46 3.51 3.51 3.56 3.61 3.86 3.96 2.66 2.66 4.16 4.06 3.46 3.91 3.81 3.71 3.76 3.86 3.91 4.71 4.81 4.91 2.41 2.01 1.96 1.96 6.81 6.66 6.61 6.31 6.11 6.06 2.21 5.91 5.86 5.81 1.86 5.71 5.91 5.36 5.66 5.21 1.91 1.76 1.76 1.76 1.81 1.81 1.56 1.51 1.51 1.51 1.51 1.56 1.61 1.76 1.71 1.66 1.61 1.61 1.56 1.61 1.61 1.51 1.44 1.5 1.46 1.51 1.51 1.51 12.0171 -13.4999 -1.55524 12.0171 -13.4999 -1.55524 4.29497e+09 pippo 4.29497e+09
FLASER 180 1.61 1.81 1.41 1.41 1.46 1.46 1.46 1.86 3.06 3.16 1.71 1.71 1.86 4.11 2.01 3.91 3.86 3.76 3.76 3.81 2.56 2.51 2.51 2.61 2.61 2.61 2.56 2.61 2.46 2.36 2.86 2.86 1.81 1.81 1.81 1.86 2.36 2.36 2.36 2.51 2.96 2.91 2.86 2.76 2.76 2.66 2.66 2.61 2.61 2.61 2.56 2.46 2.46 2.46 2.36 2.36 2.36 2.31 2.31 2.26 2.26 2.21 2.21 2.21 2.19 2.16 2.11 2.11 2.11 2.09 2.14 2.26 2.36 2.56 2.76 3.06 3.31 3.61 4.06 4.61 5.26 6.21 7.61 9.86 23.16 23.16 23.21 23.21 23.21 10.76 10.71 15.86 11.81 11.36 11.36 9.51 7.16 6.76 6.76 6.81 5.91 6.46 6.26 5.06 5.21 5.01 4.11 4.01 3.81 3.16 3.01 2.91 2.81 2.71 2.66 2.51 2.41 2.39 2.39 2.44 2.44 2.51 2.51 2.51 2.56 2.61 2.66 2.71 2.96 3.01 3.16 3.21 3.26 3.16 3.11 3.11 1.96 1.81 1.81 1.76 2.91 3.01 3.16 3.61 4.26 4.31 4.41 6.01 5.71 5.66 5.51 5.41 5.41 5.41 5.31 5.31 5.26 5.26 5.21 5.26 5.36 4.86 1.61 1.76 1.61 1.56 1.46 1.41 1.46 1.41 1.44 1.56 1.56 1.56 1.46 1.39 1.42 1.41 1.46 1.46 12.0021 -14.6187 -1.58087 12.0021 -14.6187 -1.58087 4.29497e+09 pippo 4.29497e+09
FLASER 180 1.56 1.56 1.66 1.66 1.71 1.76 1.76 1.81 1.84 1.89 1.84 1.89 1.94 1.94 1.94 3.01 2.11 2.06 2.11 2.51 1.91 2.11 2.06 2.11 2.06 1.96 1.91 1.81 1.71 1.71 1.66 1.66 1.56 1.51 1.51 1.46 1.41 1.41 1.41 1.36 1.31 1.31 1.26 1.21 1.21 1.16 1.16 1.16 1.16 1.16 1.11 1.09 1.09 1.09 1.09 1.16 1.16 1.21 1.26 1.31 1.36 1.36 1.41 1.51 1.56 1.66 1.66 1.81 1.86 1.96 2.06 2.21 2.36 2.51 2.71 2.91 3.16 3.46 3.81 4.21 4.81 5.41 6.46 7.81 9.96 22.01 35.96 22.06 22.11 35.96 22.11 14.71 14.76 13.86 10.21 5.31 5.41 5.51 6.41 5.96 5.66 5.66 5.71 5.71 4.76 5.36 5.21 4.41 4.06 4.01 4.01 3.81 3.61 3.41 3.06 3.01 2.91 2.81 2.76 2.71 2.56 2.56 2.09 2.04 1.99 1.94 1.89 1.84 1.84 1.79 1.74 1.74 1.74 1.64 1.64 1.59 1.54 1.54 1.49 1.49 1.49 1.54 1.54 1.59 1.66 1.66 1.71 1.76 1.81 1.86 2.01 2.51 2.81 2.46 1.96 2.41 2.41 2.36 2.41 2.36 2.36 2.36 1.66 1.94 1.81 5.01 1.76 5.01 1.71 1.76 1.66 1.66 1.61 1.61 1.51 1.46 1.36 1.34 1.29 1.32 11.9466 -15.7605 -1.60257 11.9466 -15.7605 -1.60257 4.29497e+09 pippo 4.29497e+09
FLASER 180 0.59 0.64 0.64 0.64 0.64 0.64 0.64 0.64 0.64 0.61 0.61 0.61 0.61 0.61 0.61 0.66 0.61 0.66 0.61 0.61 0.61 0.66 0.66 0.66 0.66 0.66 0.66 0.71 0.71 0.71 0.71 0.71 0.76 0.76 0.76 0.76 0.76 0.76 0.76 0.81 0.81 0.81 0.86 0.86 0.86 0.91 0.91 0.91 0.96 1.01 0.96 1.01 1.06 1.06 1.11 1.16 1.16 1.21 1.26 1.31 1.31 1.36 1.41 1.46 1.51 1.56 1.66 1.76 1.76 1.91 2.01 2.11 2.26 2.36 2.51 2.71 2.91 3.21 3.51 3.81 4.26 4.76 5.46 6.41 7.66 9.56 21.06 35.01 21.01 21.02 35.01 20.41 14.71 13.71 13.71 12.01 9.16 9.11 8.26 7.36 9.66 5.51 5.11 4.71 4.61 4.61 4.66 4.66 4.56 4.01 3.81 4.26 4.16 3.71 3.51 3.36 2.96 3.16 3.06 3.01 2.91 1.86 1.79 1.79 1.79 1.81 1.71 1.74 1.74 1.74 1.76 2.01 2.01 1.96 1.91 1.91 1.86 1.81 1.76 1.76 1.76 1.76 1.71 1.76 1.86 1.86 1.41 1.34 1.39 1.34 1.29 1.29 1.29 1.24 1.29 1.27 1.24 1.24 1.27 1.24 1.24 1.24 1.22 1.22 1.22 1.22 1.22 1.22 1.22 1.22 1.17 1.17 1.17 1.22 1.17 1.17 1.17 1.17 1.17 1.17 11.8765 -16.7661 -1.62145 11.8765 -16.7661 -1.62145 4.29497e+09 pippo 4.29497e+09
FLASER 180 0.59 0.59 0.59 0.64 0.64 0.59 0.64 0.64 0.64 0.64 0.64 0.61 0.61 0.61 0.61 0.61 0.61 0.61 0.66 0.66 0.66 0.61 0.61 0.61 0.66 0.66 0.66 0.66 0.71 0.71 0.71 0.71 0.71 0.71 0.71 0.76 0.76 0.76 0.76 0.81 0.76 0.81 0.81 0.86 0.86 0.86 0.86 0.91 0.96 0.96 0.96 1.01 1.01 1.01 1.06 1.11 1.11 1.16 1.21 1.21 1.26 1.26 1.36 1.41 1.46 1.51 1.56 1.61 1.71 1.76 1.86 1.91 2.06 2.21 2.36 2.46 2.66 2.86 3.11 3.36 3.66 4.06 4.61 5.26 6.06 7.21 8.91 19.96 33.86 20.11 20 33.91 20.06 15.41 12.66 12.71 12.66 12.71 8.16 8.11 8.16 7.26 6.36 7.31 5.46 4.56 4.21 3.96 3.81 3.61 3.64 3.66 3.71 3.71 3.71 3.56 3.51 3.41 2.86 2.81 3.21 3.01 3.01 3.01 2.81 2.76 2.61 2.56 2.46 2.39 2.21 2.11 2.41 2.26 2.21 2.11 2.16 2.21 2.16 2.14 2.11 1.91 2.06 2.01 1.91 1.96 1.76 1.81 1.71 1.71 1.71 1.14 1.09 1.19 1.14 1.14 1.14 1.16 1.19 1.14 1.14 1.14 1.14 1.14 1.14 1.24 1.41 1.39 1.34 1.44 1.39 1.34 1.39 1.34 1.34 1.31 1.34 1.39 1.39 1.39 11.7853 -17.8383 -1.64457 11.7853 -17.8383 -1.64457 4.29497e+09 pippo 4.29497e+09
FLASER 180 0.59 0.59 0.59 0.59 0.59 0.59 0.54 0.54 0.59 0.59 0.59 0.59 0.61 0.56 0.61 0.61 0.56 0.61 0.56 0.61 0.61 0.61 0.61 0.56 0.61 0.61 0.61 0.61 0.66 0.61 0.66 0.66 0.66 0.66 0.71 0.66 0.71 0.71 0.71 0.71 0.76 0.76 0.76 0.76 0.76 0.81 0.86 0.81 0.86 0.91 0.91 0.91 0.91 0.96 0.96 1.01 1.06 1.06 1.11 1.16 1.11 1.16 1.21 1.26 1.31 1.36 1.41 1.46 1.51 1.66 1.66 1.76 1.81 1.96 2.06 2.21 2.31 2.46 2.71 2.91 3.21 3.41 3.81 4.31 4.91 5.66 6.71 13.86 18.96 51.06 19.11 19.01 51.06 25.31 16.66 12.66 11.61 11.61 10.96 10.11 7.61 7.06 7.06 7.16 6.26 7.26 5.36 6.36 6.01 4.41 5.46 5.06 3.36 3.21 3.11 2.96 2.81 2.76 2.66 2.69 2.79 2.79 2.81 2.81 2.81 2.81 2.71 2.66 2.61 2.61 2.51 2.46 2.46 2.26 2.01 2.01 2.36 2.31 2.31 2.21 2.21 2.21 2.16 2.11 2.06 2.06 2.01 2.01 1.96 1.86 1.85 1.81 1.76 1.74 1.76 1.81 1.69 1.71 1.76 1.51 1.51 1.71 1.61 1.56 1.61 1.66 1.66 1.51 1.46 1.61 1.61 1.61 1.46 1.51 1.46 1.51 1.56 1.46 1.41 1.41 11.6856 -18.8187 -1.66341 11.6856 -18.8187 -1.66341 4.29497e+09 pippo 4.29497e+09
FLASER 180 0.49 0.54 0.54 0.59 0.54 0.54 0.54 0.54 0.54 0.51 0.51 0.56 0.51 0.51 0.51 0.51 0.56 0.51 0.56 0.56 0.56 0.61 0.56 0.56 0.61 0.56 0.56 0.56 0.61 0.61 0.61 0.61 0.61 0.66 0.66 0.66 0.66 0.66 0.71 0.71 0.71 0.71 0.71 0.76 0.76 0.76 0.81 0.81 0.81 0.86 0.86 0.91 0.91 0.96 0.96 0.96 1.01 1.01 1.06 1.16 1.16 1.16 1.21 1.26 1.31 1.36 1.41 1.46 1.56 1.66 1.71 1.81 1.96 2.06 2.16 2.31 2.51 2.81 3.06 3.31 3.66 4.11 4.71 5.51 6.61 15.76 17.96 31.86 17.91 17.96 31.86 18.06 15.71 12.41 10.66 10.61 10.66 9.76 10.76 6.91 6.31 6.06 6.11 6.16 5.56 5.21 5.96 6.86 4.36 5.16 4.96 4.71 4.01 3.41 3.76 3.71 3.86 3.51 2.56 2.49 2.44 2.34 2.29 2.24 2.19 2.09 2.09 2.04 1.99 1.94 1.94 1.89 1.89 1.89 1.94 1.96 2.01 2.01 2.11 2.11 2.16 2.06 2.01 1.96 1.96 1.96 1.96 1.91 1.91 1.91 1.86 1.86 1.89 1.84 1.89 1.84 1.84 1.84 1.89 1.79 1.51 1.46 1.51 1.51 1.79 1.79 1.79 1.74 1.74 1.69 1.69 1.69 1.69 1.69 1.64 1.64 1.59 1.52 1.44 1.39 11.5435 -19.8168 -1.6233 11.5435 -19.8168 -1.6233 4.29497e+09 pippo 4.29497e+09
FLASER 180 0.56 0.59 0.59 0.54 0.54 0.59 0.59 0.59 0.64 0.56 0.56 0.56 0.61 0.61 0.61 0.61 0.56 0.61 0.61 0.61 0.61 0.61 0.66 0.61 0.66 0.66 0.66 0.66 0.71 0.71 0.71 0.71 0.71 0.71 0.71 0.71 0.76 0.76 0.81 0.81 0.81 0.81 0.81 0.81 0.81 0.91 0.91 0.96 0.96 0.96 1.01 1.01 1.06 1.06 1.11 1.16 1.16 1.21 1.26 1.31 1.36 1.41 1.41 1.51 1.61 1.66 1.76 1.86 1.91 2.01 2.16 2.31 2.46 2.66 2.86 3.11 3.41 3.66 4.16 4.76 5.41 10.76 12.81 16.86 30.91 30.76 16.91 17.06 28.11 16.96 13.71 11.41 9.56 9.61 9.61 9.66 9.66 9.76 5.91 5.51 5.11 5.04 5.11 5.21 5.21 4.21 4.21 5.76 5.66 4.01 3.76 3.41 3.61 3.96 3.71 3.61 3.16 3.11 2.96 2.56 2.56 2.81 2.66 2.71 2.66 2.61 2.56 2.51 2.36 2.16 2.16 1.96 1.74 1.64 1.59 1.59 1.59 1.54 1.54 1.49 1.49 1.44 1.44 1.44 1.39 1.39 1.39 1.39 1.34 1.34 1.34 1.29 1.32 1.37 1.29 1.29 1.24 1.27 1.24 1.24 1.24 1.29 1.41 1.46 1.41 1.61 1.64 1.69 1.54 1.59 1.54 1.54 1.59 1.54 1.49 1.44 1.34 1.4 1.44 1.54 11.5158 -20.8935 -1.58055 11.5158 -20.8935 -1.58055 4.29497e+09 pippo 4.29497e+09
FLASER 180 0.59 0.59 0.64 0.64 0.59 0.64 0.64 0.64 0.64 0.61 0.61 0.61 0.61 0.66 0.61 0.61 0.61 0.66 0.66 0.66 0.66 0.66 0.66 0.66 0.71 0.66 0.71 0.71 0.71 0.71 0.71 0.76 0.71 0.76 0.76 0.76 0.81 0.81 0.81 0.86 0.81 0.86 0.86 0.91 0.91 0.96 0.96 0.96 0.96 1.01 1.06 1.06 1.11 1.11 1.16 1.21 1.21 1.31 1.31 1.36 1.36 1.46 1.51 1.56 1.61 1.71 1.71 1.86 1.96 2.06 2.16 2.31 2.46 2.56 2.81 3.06 3.31 3.61 4.01 4.46 8.56 9.46 11.01 13.61 15.91 25.86 29.71 15.9 15.91 26.96 15.91 13.11 10.46 8.66 8.56 8.56 8.61 7.71 8.66 6.76 8.71 4.91 4.61 4.31 4.06 4.09 4.14 4.16 4.11 4.11 4.16 3.46 3.31 3.56 3.41 3.26 3.21 3.06 3.01 2.86 2.71 2.46 2.76 2.71 2.66 2.66 2.61 2.56 2.51 2.46 2.46 2.31 2.21 2.26 2.16 2.11 1.91 1.76 1.76 1.76 1.86 2.06 2.01 1.96 1.96 1.91 1.91 1.86 1.91 1.86 1.81 1.81 1.76 1.81 1.61 1.56 1.56 1.56 1.56 1.51 1.51 1.51 1.51 1.51 1.51 1.46 1.46 1.41 1.14 1.14 1.14 1.14 1.17 1.17 1.17 1.17 1.17 1.15 1.17 1.17 11.4444 -21.9167 -1.59776 11.4444 -21.9167 -1.59776 4.29497e+09 pippo 4.29497e+09
FLASER 180 0.64 0.64 0.64 0.69 0.64 0.64 0.64 0.69 0.69 0.66 0.61 0.66 0.66 0.66 0.66 0.66 0.66 0.66 0.66 0.71 0.71 0.66 0.71 0.71 0.71 0.76 0.71 0.76 0.76 0.71 0.81 0.76 0.76 0.81 0.81 0.81 0.86 0.81 0.86 0.86 0.91 0.91 0.91 0.96 0.91 0.96 1.01 1.01 1.06 1.06 1.11 1.11 1.11 1.16 1.21 1.26 1.31 1.31 1.36 1.41 1.41 1.51 1.51 1.61 1.66 1.71 1.76 1.91 2.01 2.11 2.21 2.41 2.51 2.71 2.91 3.11 3.36 3.61 7.56 7.56 8.21 9.41 10.76 13.56 14.91 24.81 28.71 14.9 14.91 28.71 14.91 13.41 10.61 9.31 7.51 7.51 7.56 7.56 7.61 6.71 7.66 5.71 7.76 4.86 4.86 3.76 3.61 3.41 3.21 3.11 3.09 3.14 3.14 3.16 3.21 3.16 3.11 3.01 3.01 2.96 2.81 2.41 2.36 2.46 2.71 2.51 2.51 2.41 2.36 2.31 2.31 2.26 2.21 2.21 2.16 2.16 2.06 2.06 2.01 1.81 1.66 1.91 1.91 1.91 1.91 1.91 1.86 1.76 1.84 1.84 1.84 1.79 1.79 1.79 1.79 1.74 1.71 1.71 1.74 1.69 1.69 1.64 1.64 1.64 1.54 1.59 1.54 1.51 1.51 1.46 1.46 1.36 1.26 1.29 1.29 1.32 1.39 1.34 1.34 1.39 11.3958 -22.9578 -1.60163 11.3958 -22.9578 -1.60163 4.29497e+09 pippo 4.29497e+09
FLASER 180 0.64 0.64 0.69 0.69 0.64 0.64 0.69 0.64 0.69 0.69 0.66 0.66 0.71 0.66 0.66 0.66 0.71 0.66 0.71 0.66 0.71 0.71 0.71 0.76 0.71 0.71 0.71 0.71 0.71 0.76 0.76 0.76 0.81 0.81 0.81 0.81 0.86 0.81 0.81 0.86 0.91 0.86 0.91 0.91 0.91 1.01 1.01 0.96 1.01 1.06 1.06 1.11 1.16 1.16 1.21 1.21 1.26 1.26 1.31 1.36 1.41 1.46 1.51 1.56 1.61 1.71 1.81 1.86 1.96 2.06 2.21 2.26 2.41 2.56 2.76 6.56 6.56 6.51 6.51 6.56 7.41 8.31 9.71 11.56 13.76 20.01 23.76 14.06 13.82 13.86 27.71 23.81 13.16 10.46 8.96 7.41 6.46 6.46 6.46 6.51 6.56 6.66 5.66 6.66 4.91 5.16 6.76 5.36 3.91 3.86 3.81 3.01 2.81 2.71 2.61 2.51 2.44 2.34 2.29 2.24 2.19 2.17 2.19 2.24 2.26 2.31 2.31 2.31 2.31 2.36 2.36 2.26 2.21 2.26 2.11 2.16 2.11 2.11 2.06 2.01 2.01 1.96 1.66 1.56 1.56 1.56 1.76 1.76 1.86 1.81 1.81 1.79 1.71 1.79 1.69 1.74 1.74 1.69 1.69 1.64 1.69 1.64 1.64 1.64 1.59 1.59 1.59 1.59 1.54 1.49 1.54 1.44 1.49 1.44 1.44 1.39 1.34 1.37 1.32 1.27 11.3056 -23.9956 -1.60883 11.3056 -23.9956 -1.60883 4.29497e+09 pippo 4.29497e+09
FLASER 180 0.64 0.64 0.69 0.64 0.69 0.69 0.64 0.64 0.64 0.69 0.69 0.66 0.66 0.66 0.66 0.66 0.71 0.66 0.71 0.71 0.66 0.71 0.71 0.71 0.71 0.76 0.71 0.76 0.76 0.76 0.76 0.76 0.76 0.81 0.81 0.81 0.81 0.86 0.91 0.86 0.86 0.86 0.91 0.91 0.91 0.96 0.96 1.01 1.01 1.01 1.06 1.06 1.06 1.11 1.21 1.21 1.21 1.26 1.31 1.31 1.36 1.36 1.46 1.51 1.51 1.61 1.71 1.74 5.91 5.86 4.71 5.71 5.66 5.66 5.56 5.51 5.51 5.46 5.46 5.96 6.56 7.31 8.66 9.46 11.06 12.81 51.06 22.76 12.86 12.81 12.86 26.66 18.86 12.81 10.66 8.86 8.11 6.46 5.81 5.46 5.46 5.46 5.51 5.56 5.56 5.61 4.66 5.66 5.76 5.76 3.81 5.81 4.46 4.26 3.56 3.36 2.96 2.91 2.91 2.91 2.91 2.86 2.76 2.71 1.99 1.94 1.89 1.84 1.79 1.79 1.74 1.69 1.69 1.64 1.59 1.54 1.54 1.54 1.49 1.49 1.44 1.44 1.47 1.39 1.34 1.44 1.44 1.49 1.56 1.56 1.61 1.66 1.66 1.71 1.76 1.76 1.71 1.71 1.71 1.71 1.71 1.66 1.61 1.61 1.56 1.56 1.56 1.56 1.51 1.51 1.51 1.41 1.36 1.41 1.46 1.41 1.41 1.36 1.36 1.3 11.2261 -25.1036 -1.62956 11.2261 -25.1036 -1.62956 4.29497e+09 pippo 4.29497e+09
FLASER 180 0.59 0.64 0.64 0.64 0.64 0.64 0.59 0.64 0.64 0.64 0.69 0.69 0.64 0.61 0.66 0.61 0.66 0.66 0.61 0.66 0.66 0.66 0.66 0.66 0.66 0.71 0.71 0.71 0.66 0.71 0.71 0.76 0.71 0.76 0.76 0.76 0.76 0.81 0.81 0.81 0.81 0.81 0.86 0.89 0.89 0.89 2.21 2.16 2.26 6.01 5.91 5.81 5.76 5.66 5.56 5.51 5.41 4.76 4.71 2.91 2.96 4.56 4.56 4.56 4.76 4.96 3.76 3.76 4.76 4.66 4.76 4.61 4.56 4.56 4.51 4.51 4.51 4.51 4.91 5.36 5.81 6.36 7.61 7.96 9.51 10.66 11.81 17.96 21.71 25.61 11.76 11.76 25.61 20.91 11.86 11.11 9.21 7.86 6.96 6.11 5.36 4.91 4.46 4.41 4.41 4.46 4.51 4.51 4.56 4.61 4.66 4.66 3.66 4.76 4.76 4.81 4.86 3.41 3.31 2.81 3.56 3.41 3.31 3.21 2.86 2.76 2.66 2.61 2.36 2.36 2.11 2.06 2.06 2.11 2.06 2.11 2.11 2.11 2.11 1.96 1.96 1.91 2.01 2.01 2.01 1.96 1.96 1.91 1.86 1.86 1.66 1.61 1.34 1.34 1.29 1.29 1.24 1.27 1.24 1.24 1.19 1.22 1.22 1.22 1.22 1.17 1.22 1.17 1.17 1.22 1.17 1.17 1.17 1.17 1.17 1.17 1.17 1.17 1.17 1.17 11.1243 -26.1456 -1.6434 11.1243 -26.1456 -1.6434 4.29497e+09 pippo 4.29497e+09
FLASER 180 1.61 1.45 1.46 1.51 1.56 1.66 1.71 1.76 1.91 6.26 5.91 5.91 4.11 3.81 3.61 3.66 1.56 1.51 1.51 1.56 1.56 1.86 3.81 3.81 3.86 3.86 3.91 3.96 3.96 6.06 6.16 5.76 5.91 5.86 5.91 6.01 5.86 5.76 5.61 5.46 5.31 5.21 5.11 1.96 2.01 2.01 4.76 4.61 4.56 3.81 3.76 3.71 3.71 3.61 3.56 3.56 3.51 3.66 2.66 2.71 3.91 3.91 3.76 3.71 3.66 3.61 3.61 3.46 3.49 3.49 3.44 3.44 3.39 3.39 3.39 3.56 3.76 4.01 4.31 4.61 5.01 5.46 6.46 6.56 7.56 8.46 9.96 3.04 2.99 2.99 3.16 3.31 3.71 10.86 21.61 16.66 10.66 9.96 8.46 7.41 6.56 5.96 5.31 5.06 4.71 4.06 3.81 3.56 3.36 3.34 3.34 3.34 3.39 3.44 3.44 3.49 3.51 3.56 3.56 3.61 3.61 3.66 2.76 2.66 2.66 3.11 3.86 3.91 3.96 2.81 2.81 2.71 2.56 2.51 2.46 2.51 2.46 2.06 1.91 2.36 2.31 2.31 2.26 2.26 2.21 2.16 2.11 2.06 2.01 2.01 1.96 1.96 1.94 1.94 1.89 1.66 1.61 1.61 1.61 1.61 1.56 1.56 1.56 1.51 1.41 1.41 1.46 1.41 1.51 1.56 1.51 1.51 1.46 1.46 1.46 1.41 1.46 1.46 1.46 1.41 11.0175 -27.311 -1.67397 11.0175 -27.311 -1.67397 4.29497e+09 pippo 4.29497e+09
FLASER 180 1.76 1.61 1.42 1.39 1.51 1.71 1.66 1.86 3.51 3.51 3.51 1.66 1.61 1.66 1.46 1.46 1.46 1.46 8.46 8.06 7.56 5.61 5.26 5.31 5.31 5.36 5.41 5.51 5.26 5.11 4.96 4.76 4.61 4.51 4.41 4.26 4.11 4.01 3.06 3.01 2.91 2.91 1.86 1.86 1.91 1.91 2.76 2.81 2.86 2.96 3.06 3.06 3.01 2.86 2.81 2.76 2.71 2.71 2.66 2.61 2.54 2.49 2.54 2.49 2.44 2.39 2.39 2.34 2.39 2.39 2.49 2.56 2.71 2.86 3.01 3.16 3.31 3.56 3.71 4.01 4.36 5.41 5.41 5.61 6.26 7.31 8.01 9.46 9.66 51.06 7.76 7.71 7.36 7.51 9.76 23.46 19.46 13.21 9.66 8.96 7.76 6.86 6.21 5.61 5.06 4.96 4.66 4.16 4.01 3.86 3.56 3.21 3.01 2.86 2.76 2.61 2.51 2.44 2.39 2.39 2.44 2.44 2.44 2.49 2.54 2.54 2.56 2.56 2.61 2.66 2.66 2.71 2.76 2.81 2.86 2.91 2.96 3.06 3.06 3.16 2.11 1.91 1.91 1.86 2.26 2.31 2.16 2.21 2.31 2.21 2.16 2.11 2.06 2.06 2.01 1.96 1.99 1.99 1.94 1.89 1.89 1.89 1.89 1.84 1.84 1.84 1.84 1.84 1.84 1.79 1.51 1.46 1.69 1.74 1.69 1.74 1.74 1.79 1.69 1.49 10.9086 -28.3287 -1.69417 10.9086 -28.3287 -1.69417 4.29497e+09 pippo 4.29497e+09
FLASER 180 1.46 1.41 1.41 1.29 1.32 1.41 1.46 1.51 1.56 1.56 1.31 1.31 1.31 1.31 1.31 1.36 1.61 4.96 5.01 4.66 4.36 1.66 2.41 1.71 2.21 2.16 2.06 2.06 2.06 2.06 2.11 2.16 2.16 2.21 2.26 2.26 2.36 2.31 2.01 1.96 1.96 1.91 1.86 1.86 1.71 1.69 1.69 1.64 1.59 1.59 1.59 1.54 1.49 1.44 1.49 1.44 1.44 1.49 1.49 1.54 1.59 1.59 1.64 1.69 1.74 1.79 1.89 1.94 2.04 2.14 2.19 2.24 2.31 2.46 2.61 2.71 2.86 3.06 3.26 3.46 4.41 4.41 4.36 4.76 5.21 6.31 6.36 7.36 8.51 8.71 13.11 18.46 9.41 10.06 9.56 8.56 22.36 18.41 14.66 11.76 8.66 8.41 7.46 6.71 6.06 5.51 5.11 4.71 4.41 4.11 3.91 3.66 3.46 3.31 3.11 3.01 2.91 2.81 2.76 2.66 2.61 2.39 2.29 2.24 2.14 2.09 1.99 1.94 1.89 1.84 1.79 1.79 1.74 1.69 1.64 1.64 1.59 1.59 1.59 1.64 1.64 1.69 1.69 1.74 1.79 1.79 1.89 1.91 1.86 1.91 2.01 2.06 2.16 2.21 2.26 2.31 2.41 2.51 2.61 2.76 2.81 2.96 3.06 3.26 3.41 3.56 3.76 2.11 1.96 1.91 1.76 1.76 1.76 1.56 1.56 1.51 1.51 1.46 1.51 1.66 10.7168 -29.3577 -1.70233 10.7168 -29.3577 -1.70233 4.29497e+09 pippo 4.29497e+09
FLASER 180 1.34 1.25 1.27 1.31 1.36 1.21 1.24 1.24 1.11 0.91 0.84 0.79 0.79 0.84 0.79 0.79 0.79 0.84 0.84 0.84 0.84 0.84 0.84 0.84 0.84 0.84 0.89 0.89 0.89 0.84 0.89 0.94 0.94 0.94 0.94 0.94 0.94 0.99 0.99 0.99 1.04 1.04 1.04 1.09 1.09 1.09 1.14 1.14 1.14 1.19 1.19 1.24 1.29 1.29 1.29 1.34 1.44 1.44 1.49 1.49 1.54 1.59 1.64 1.69 1.79 1.84 1.89 1.99 2.09 2.14 2.24 2.31 2.44 3.16 3.36 3.39 3.39 3.34 3.51 3.81 4.16 5.26 5.26 5.61 6.31 7.31 7.56 10.76 13.66 18.51 21.36 13.96 8.01 7.51 21.41 17.41 13.61 11.41 9.76 7.61 7.51 6.76 6.16 5.66 5.21 4.81 4.51 4.21 3.96 3.76 3.56 3.41 3.21 3.11 3.09 2.91 2.81 2.76 2.61 2.56 2.46 2.41 2.26 2.24 2.21 2.16 2.16 2.11 2.06 2.06 1.94 1.86 1.86 1.84 1.79 1.81 1.76 1.71 1.59 1.54 1.54 1.49 1.44 1.44 1.44 1.39 1.39 1.34 1.34 1.39 1.29 1.34 1.29 1.29 1.29 1.24 1.24 1.24 1.19 1.19 1.19 1.22 1.22 1.19 1.22 1.17 1.17 1.17 1.17 1.14 1.17 1.17 1.17 1.14 1.14 1.14 1.21 1.54 1.54 1.54 10.6037 -30.391 -1.66267 10.6037 -30.391 -1.66267 4.29497e+09 pippo 4.29497e+09
FLASER 180 0.72 0.72 0.77 0.77 0.77 0.72 0.77 0.72 0.77 0.77 0.77 0.77 0.77 0.74 0.82 0.74 0.74 0.79 0.77 0.74 0.79 0.79 0.79 0.79 0.84 0.79 0.84 0.79 0.84 0.84 0.84 0.89 0.84 0.84 0.89 0.89 0.89 0.94 0.94 0.94 0.94 0.94 0.99 0.94 0.99 0.99 1.04 1.04 1.04 1.09 1.14 1.14 1.14 1.19 1.19 1.29 1.29 1.29 1.34 1.39 1.39 1.49 1.52 1.54 1.99 2.09 2.14 2.19 2.34 2.36 2.44 2.39 2.34 2.34 2.39 2.56 2.71 2.91 3.11 3.36 3.76 4.19 4.21 4.76 5.26 6.01 6.46 6.56 6.56 13.41 18.61 18.41 20.36 6.81 6.46 6.66 17.46 15.56 11.66 10.11 8.81 7.86 6.56 6.36 5.86 5.41 5.01 4.71 4.41 4.16 3.96 3.71 3.51 3.36 3.26 3.06 2.96 2.86 2.76 2.66 2.64 2.54 2.36 2.34 2.29 2.24 2.14 2.19 2.21 2.16 2.11 2.06 2.01 2.01 1.96 1.91 1.81 1.86 1.81 1.81 1.76 1.76 1.71 1.71 1.49 1.44 1.54 1.56 1.56 1.56 1.51 1.51 1.51 1.46 1.46 1.41 1.46 1.41 1.41 1.41 1.39 1.37 1.34 1.29 1.29 1.34 1.29 1.32 1.32 1.32 1.34 1.36 1.31 1.31 1.31 1.26 1.26 1.31 1.26 1.19 10.4478 -31.4512 -1.67942 10.4478 -31.4512 -1.67942 4.29497e+09 pippo 4.29497e+09
FLASER 180 0.67 0.72 0.67 0.67 0.67 0.72 0.67 0.72 0.67 0.72 0.69 0.72 0.72 0.69 0.69 0.69 0.69 0.72 0.69 0.74 0.69 0.74 0.74 0.74 0.69 0.74 0.79 0.94 0.99 0.99 0.99 1.04 1.04 1.04 1.04 1.09 1.09 1.09 1.14 1.14 1.14 1.14 1.19 1.19 1.19 1.24 1.24 1.29 1.29 1.34 1.34 1.39 1.44 1.44 1.49 1.44 1.44 1.44 1.44 1.44 1.42 1.39 1.49 1.54 1.59 1.64 1.74 1.79 1.89 1.99 2.09 2.16 2.31 4.16 4.11 3.24 3.19 3.21 3.36 3.71 4.11 4.56 5.01 5.41 5.51 8.01 10.01 15.31 19.31 5.66 5.5 5.46 5.46 5.41 5.66 14.31 11.91 10.21 9.01 8.06 7.26 6.66 5.66 5.51 5.16 4.86 4.56 4.26 4.11 3.86 3.71 3.51 3.36 3.21 3.06 2.96 2.86 2.76 2.66 1.56 1.39 1.39 1.31 1.29 1.29 1.29 1.24 1.29 1.29 1.34 1.34 1.44 1.54 1.84 1.79 1.79 1.79 1.69 1.69 1.64 1.64 1.59 1.59 1.54 1.54 1.54 1.54 1.49 1.44 1.49 1.51 1.56 1.51 1.51 1.51 1.46 1.51 1.46 1.46 1.46 1.46 1.46 1.46 1.41 1.41 1.41 1.41 1.41 1.41 1.36 1.36 1.41 1.36 1.36 1.36 1.31 1.36 1.31 1.36 1.36 10.3275 -32.5392 -1.64131 10.3275 -32.5392 -1.64131 4.29497e+09 pippo 4.29497e+09
FLASER 180 0.93 0.96 0.96 0.91 0.91 0.88 0.91 0.85 0.85 0.78 0.73 0.73 0.73 0.73 0.73 0.78 0.73 0.78 0.78 0.78 0.78 0.83 0.83 0.78 0.83 0.83 0.83 0.83 0.88 0.83 0.88 0.88 0.88 0.93 0.93 0.93 0.93 0.98 0.98 1.03 1.03 1.03 1.08 1.08 1.08 1.13 1.18 1.18 1.28 1.23 1.33 1.33 1.38 4.2 4.3 3.35 3.2 3.15 3.25 3.2 2.55 2.3 2.23 2.26 2.18 2.23 2.35 2.45 2.6 2.75 3 3.25 3.5 3.75 4.15 4.4 4.45 5.95 6.85 8.05 10.6 14.35 4.65 4.6 4.45 4.4 4.45 4.4 4.4 4.55 4.75 10.5 9.05 8.05 7.25 6.6 6.05 5.6 4.6 4.5 4.5 4.25 3.95 3.8 3.65 3.45 3.3 3.15 3.05 2.9 2.8 2.7 2.65 2.58 2.48 2.38 2.33 2.28 2.18 2.18 2.13 2.08 1.98 1.98 1.93 1.88 1.83 1.83 1.73 1.73 1.68 1.63 1.63 1.63 1.58 1.58 1.53 1.53 1.53 1.48 1.43 1.43 1.43 1.38 1.38 1.38 1.38 1.33 1.33 1.33 1.33 1.33 1.28 1.28 1.33 1.28 1.28 1.23 1.23 1.23 1.28 1.23 1.18 0.88 0.83 0.88 0.83 0.78 0.83 0.73 0.78 0.73 0.73 0.73 0.73 0.73 0.73 0.73 0.73 0.73 10.2833 -33.5289 -1.53646 10.2833 -33.5289 -1.53646 4.29497e+09 pippo 4.29497e+09
FLASER 180 0.83 0.83 0.9 1 1.1 4.85 4.65 4.8 5.05 5.25 5.25 3.05 2.85 2.75 2.7 2.65 2.7 2.7 2.75 2.75 2.8 2.85 2.9 2.9 2.95 3 3 3 4 4 1.93 4 3.9 3.8 3.5 2.4 2.2 2.15 1.5 1.45 1.38 1.38 1.38 1.38 1.43 1.43 1.48 1.53 1.58 1.58 1.63 1.73 1.73 1.83 1.88 1.93 2.03 2.08 2.13 2.28 2.35 2.45 2.6 2.75 2.9 3.1 3.3 3.38 3.45 3.5 3.6 3.85 3.65 3.55 3.48 3.55 2.73 2.63 2.65 2.9 3.08 3.05 3.55 3.38 3.38 3.55 3.7 3.6 3.9 8.15 7.25 6.55 5.95 5.4 5 4.7 4.4 3.6 3.5 3.48 3.4 3.2 3.05 2.95 2.85 2.75 2.63 2.5 2.48 2.33 2.28 2.23 2.13 2.13 2.03 1.98 1.93 1.88 1.83 1.78 1.73 1.73 1.68 1.63 1.63 1.58 1.53 1.53 1.53 1.48 1.43 1.43 1.43 1.38 1.33 1.33 1.33 1.33 1.33 1.33 1.28 1.28 1.23 1.18 1.18 1.23 1.18 1.18 1.18 1.18 1.13 1.13 1.18 1.08 1.13 1.08 1.13 1.08 1.08 1.08 1.11 1.11 1.11 1.11 1.11 1.11 1.11 1.06 1.11 1.11 1.11 1.08 1.11 1.11 1.06 1.11 1.11 1.11 1.11 1.11 10.3471 -34.5636 -1.49468 10.3471 -34.5636 -1.49468 4.29497e+09 pippo 4.29497e+09
FLASER 180 0.97 0.97 0.97 1.02 0.97 0.99 1.02 1.02 1.02 1.04 0.99 0.99 1.04 1.04 1.04 1.04 1.04 1.04 1.09 1.09 1.14 1.14 1.14 1.14 1.14 1.14 1.14 1.19 1.19 1.19 1.19 1.24 1.29 1.34 1.34 1.34 1.34 1.39 1.39 1.44 1.49 1.49 1.49 1.54 1.59 1.64 1.64 1.69 1.74 1.79 1.89 1.89 1.94 2.04 2.09 2.19 2.29 2.34 2.44 2.49 2.49 2.56 2.54 2.61 2.54 2.6 2.66 2.76 2.81 2.86 2.91 5.31 5.81 3.06 3.21 2.91 3.06 3.21 3.06 3.06 2.66 2.66 2.66 2.61 2.91 3.01 2.96 2.81 2.76 2.86 2.76 2.71 2.71 2.66 2.56 2.57 2.56 2.66 2.76 2.81 2.76 2.51 2.56 2.51 2.49 2.46 2.36 2.26 2.24 2.14 2.09 1.94 1.94 1.89 1.84 1.79 1.74 1.69 1.64 1.59 1.59 1.54 1.54 1.44 1.49 1.44 1.39 1.39 1.34 1.34 1.29 1.29 1.24 1.24 1.19 1.19 1.19 1.14 1.19 1.14 1.14 1.14 1.09 1.09 1.09 1.09 1.04 1.04 1.04 1.04 0.99 1.04 0.99 0.99 0.99 0.99 0.99 0.99 0.99 0.97 0.99 0.99 0.99 0.97 0.97 1.02 0.97 0.97 0.97 0.97 0.97 0.97 0.97 0.97 0.97 1.02 0.97 0.97 0.94 0.92 10.414 -35.2495 -1.48855 10.414 -35.2495 -1.48855 4.29497e+09 pippo 4.29497e+09
FLASER 180 1.12 1.07 1.07 1.07 1.12 1.07 1.07 1.12 1.12 1.12 1.09 1.12 1.12 1.12 1.17 1.17 1.17 1.14 1.22 1.14 1.22 1.19 1.24 1.24 1.24 1.24 1.27 1.24 1.29 1.29 1.29 1.34 1.34 1.34 1.39 1.39 1.44 1.44 1.44 1.49 1.54 1.54 1.59 1.59 1.69 1.64 1.64 1.64 1.69 1.69 1.71 1.71 1.96 2.11 2.16 2.21 2.26 2.31 2.41 2.46 2.56 2.71 2.81 2.96 3.06 3.21 3.41 3.61 3.81 2.31 4.26 4.56 4.91 5.31 5.76 6.26 7.51 7.66 8.71 4.31 4.31 5.01 15.21 15.21 15.16 15.21 15.21 15.26 15.26 12.46 10.26 8.56 7.41 6.46 2.46 2.16 4.71 4.31 4.01 3.76 3.46 3.31 3.06 2.91 2.76 2.61 2.51 2.36 2.26 2.16 2.11 2.01 1.66 1.56 1.61 1.61 1.56 1.49 1.49 1.54 1.54 1.49 1.44 1.39 1.39 1.39 1.34 1.29 1.24 1.24 1.19 1.19 1.14 1.14 1.09 1.09 1.09 1.09 1.09 1.04 1.04 1.04 1.04 1.04 0.99 0.99 0.94 0.99 0.94 0.94 0.94 0.89 0.94 0.89 0.94 0.89 0.89 0.89 0.89 0.89 0.89 0.89 0.89 0.89 0.84 0.87 0.84 0.84 0.84 0.84 0.87 0.87 0.87 0.87 0.87 0.87 0.87 0.84 0.92 0.87 10.4489 -36.3733 -1.55459 10.4489 -36.3733 -1.55459 4.29497e+09 pippo 4.29497e+09
FLASER 180 1.12 1.12 1.12 1.12 1.12 1.12 1.12 1.12 1.12 1.12 1.12 1.12 1.17 1.14 1.11 1.07 1.12 1.09 1.09 1.11 1.12 1.11 1.06 1.06 1.16 1.29 1.24 1.24 1.29 1.29 1.31 1.31 1.36 1.36 1.36 1.36 1.41 1.39 1.44 1.49 1.49 1.49 1.49 1.51 1.56 1.64 1.61 1.66 1.66 1.66 1.76 1.76 1.56 1.61 1.89 1.94 1.99 2.09 2.14 2.19 2.29 2.29 2.39 2.54 2.59 2.66 2.76 2.86 2.96 3.11 3.26 3.46 3.61 3.81 4.06 4.36 4.66 4.96 5.36 6.41 6.46 5.91 5.91 8.71 10.21 11.66 14.21 14.21 14.21 14.21 14.21 14.16 14.16 14.21 14.21 10.21 8.46 7.26 6.41 6.36 5.06 4.61 4.26 3.91 3.61 3.41 3.11 2.96 2.86 2.66 2.51 2.41 2.26 2.21 1.41 1.36 1.96 1.91 1.81 1.76 1.66 1.66 1.61 1.56 1.51 1.46 1.46 1.41 1.36 1.31 1.31 1.26 1.26 1.21 1.21 1.21 1.16 1.21 1.16 1.11 1.16 1.11 1.11 1.01 1.04 1.04 0.99 0.99 1.04 0.91 0.81 0.81 0.82 0.82 0.84 0.81 0.81 0.81 0.84 0.79 0.79 0.79 0.79 0.87 0.87 0.87 0.79 0.84 0.87 0.79 0.87 0.82 0.82 0.82 0.87 0.82 0.84 0.82 0.82 0.82 10.3983 -37.566 -1.64938 10.3983 -37.566 -1.64938 4.29497e+09 pippo 4.29497e+09
FLASER 180 1.04 0.99 1.09 0.99 0.92 0.94 1.04 0.94 0.94 0.91 0.96 1.09 1.12 1.12 1.09 1.12 1.09 1.09 1.17 1.14 1.09 1.14 1.19 1.14 1.14 1.14 1.19 1.19 1.19 1.19 1.24 1.24 1.24 1.24 1.29 1.29 1.34 1.29 1.34 1.34 1.39 1.39 1.39 1.44 1.44 1.49 1.54 1.59 1.59 1.59 1.59 1.64 1.69 1.74 1.74 1.79 1.89 1.94 1.99 2.04 2.09 2.14 2.19 2.24 2.34 2.49 2.49 2.61 2.71 2.81 2.91 3.06 3.26 3.41 3.56 3.76 4.01 4.21 5.16 5.36 5.31 5.71 6.31 6.96 7.76 9.06 10.16 13.11 13.06 13.01 13.01 13.01 13.01 13.01 13.01 13.06 13.06 10.16 9.06 7.26 6.41 5.71 5.21 5.21 4.31 3.96 3.76 3.46 3.26 3.06 2.86 2.76 2.56 2.46 2.36 2.26 2.16 2.11 2.04 1.94 1.89 1.84 1.79 1.74 1.74 1.64 1.59 1.54 1.49 1.49 1.44 1.39 1.39 1.39 1.34 1.34 1.29 1.29 1.19 1.19 1.19 1.14 1.14 1.14 1.14 1.09 1.09 1.04 1.09 1.04 1.04 1.04 1.04 1.04 0.99 0.99 0.99 0.99 0.94 0.94 0.99 0.94 0.94 0.94 0.94 0.89 0.89 0.89 0.89 0.89 0.92 0.87 0.76 0.71 0.71 0.69 0.84 0.84 0.84 0.74 10.2718 -38.7215 -1.68165 10.2718 -38.7215 -1.68165 4.29497e+09 pippo 4.29497e+09
FLASER 180 1.02 1.02 1.02 1.02 1.02 1.07 1.02 1.02 1.02 0.99 1.02 1.02 1.07 1.04 1.07 1.04 1.02 1.04 1.04 1.04 1.04 1.04 1.04 1.04 1.09 1.04 1.14 1.09 1.09 1.14 1.14 1.21 1.21 1.16 1.19 1.19 1.24 1.19 1.24 1.29 1.29 1.29 1.29 1.29 1.34 1.34 1.39 1.44 1.44 1.44 1.49 1.49 1.59 1.59 1.64 1.64 1.69 1.74 1.79 1.84 1.94 1.99 1.99 2.04 2.14 2.24 2.29 2.34 2.44 2.54 2.61 2.76 2.91 2.96 3.11 3.36 4.36 4.11 4.24 4.21 4.56 4.96 5.41 5.86 6.46 7.06 8.06 9.31 12.01 11.96 11.96 11.91 11.91 11.91 11.91 11.91 11.96 11.96 11.96 9.11 7.96 7.01 6.21 5.66 5.16 4.71 4.36 4.16 4.16 4.06 3.51 3.16 3.01 2.81 2.76 2.66 2.46 2.36 2.26 2.21 2.16 2.09 2.04 1.94 1.89 1.79 1.81 1.69 1.69 1.69 1.59 1.54 1.54 1.49 1.49 1.44 1.44 1.39 1.39 1.34 1.29 1.29 1.29 1.24 1.24 1.24 1.19 1.19 1.14 1.14 1.14 1.09 1.09 1.09 1.09 1.09 1.04 1.04 1.09 1.04 1.04 0.99 0.99 0.99 1.04 0.99 0.99 0.99 0.99 0.99 0.94 1.02 1.02 1.02 0.97 0.97 0.97 0.97 0.97 0.97 10.1226 -39.8223 -1.69086 10.1226 -39.8223 -1.69086 4.29497e+09 pippo 4.29497e+09
FLASER 180 0.92 0.97 0.97 0.97 0.97 0.97 0.97 0.97 0.92 0.94 0.97 0.92 0.97 0.94 1.02 0.94 0.94 0.99 0.99 0.99 0.99 0.94 0.99 0.94 0.99 0.99 0.99 0.99 1.04 1.04 1.04 1.09 1.04 1.09 1.09 1.09 1.16 1.16 1.14 1.14 1.14 1.19 1.19 1.24 1.19 1.24 1.24 1.29 1.34 1.29 1.39 1.39 1.44 1.44 1.44 1.49 1.54 1.54 1.59 1.64 1.69 1.74 1.79 1.84 1.96 1.99 2.04 2.09 2.19 2.29 2.41 3.46 3.41 3.31 3.14 3.21 3.24 3.26 3.51 3.66 3.96 4.26 4.56 5.01 5.51 6.01 6.91 8.01 8.81 10.91 10.91 10.91 10.91 10.91 10.91 10.91 10.91 10.91 10.96 10.91 10.96 8.36 7.86 6.96 5.96 5.46 5.01 4.66 4.31 4.06 3.81 3.61 3.41 3.19 3.24 3.24 3.21 3.11 3.01 2.91 2.46 2.31 2.26 2.16 2.14 2.04 1.99 1.96 1.91 1.86 1.81 1.71 1.71 1.64 1.64 1.59 1.54 1.54 1.49 1.44 1.44 1.46 1.39 1.39 1.34 1.34 1.34 1.29 1.29 1.24 1.24 1.24 1.24 1.19 1.19 1.19 1.19 1.14 1.16 1.11 1.09 1.09 1.09 1.09 1.09 1.12 1.09 1.09 1.09 1.04 1.12 1.07 1.07 1.07 1.07 1.07 1.07 1.02 1.02 1.07 9.9722 -40.8302 -1.71169 9.9722 -40.8302 -1.71169 4.29497e+09 pippo 4.29497e+09
FLASER 180 0.87 0.87 0.82 0.87 0.82 0.87 0.87 0.87 0.87 0.84 0.87 0.84 0.84 0.84 0.87 0.84 0.84 0.84 0.84 0.89 0.84 0.89 0.89 0.89 0.89 0.89 0.89 0.89 0.89 0.94 0.94 0.94 0.94 0.94 0.99 0.99 0.99 0.99 1.04 0.99 1.04 1.06 1.06 1.09 1.04 1.14 1.14 1.14 1.19 1.19 1.19 1.19 1.24 1.24 1.34 1.29 1.34 1.44 2.66 2.61 2.61 2.56 2.56 2.51 2.46 2.46 2.36 2.21 2.14 2.19 2.24 2.24 2.24 2.34 2.46 2.56 2.71 2.81 3.01 3.16 3.41 3.66 3.91 4.21 4.61 5.01 5.86 6.96 7.21 9.91 9.91 9.91 9.86 9.86 9.86 9.86 9.86 9.86 9.91 9.91 9.91 9.96 9.96 7.76 7.06 6.66 5.96 5.66 4.96 4.61 4.31 4.06 3.86 3.61 3.46 3.26 3.16 3.01 2.91 2.76 2.66 2.61 2.46 2.41 2.29 2.34 2.39 2.39 2.34 2.29 2.29 2.24 2.19 2.14 2.09 2.01 2.01 1.91 1.94 1.89 1.84 1.59 1.54 1.49 1.49 1.44 1.44 1.44 1.39 1.44 1.34 1.34 1.34 1.34 1.29 1.29 1.36 1.31 1.31 1.26 1.26 1.21 1.21 1.26 1.21 1.21 1.21 1.21 1.19 1.19 1.17 1.2 1.14 1.19 1.17 1.17 1.17 1.12 1.17 1.17 9.80424 -41.8261 -1.71673 9.80424 -41.8261 -1.71673 4.29497e+09 pippo 4.29497e+09
FLASER 180 0.77 0.82 0.77 0.77 0.77 0.77 0.82 0.92 0.84 0.92 0.89 0.87 0.84 0.84 0.89 0.86 3.66 3.66 3.51 3.36 3.16 3.01 2.91 2.86 2.61 2.61 2.56 2.36 2.31 2.31 2.16 2.16 2.01 2.01 1.91 1.86 1.81 1.81 1.76 1.71 1.66 1.66 1.61 1.56 1.36 1.24 1.24 1.24 1.29 1.29 1.34 1.34 1.29 1.29 1.29 1.29 1.34 1.39 1.39 1.49 1.54 1.54 1.59 1.69 1.74 1.74 1.84 1.89 2.04 2.09 2.19 2.26 2.41 2.51 2.71 2.86 3.06 3.26 3.46 3.76 4.66 4.81 4.91 5.91 6.41 8.86 8.81 8.81 8.81 8.81 8.81 8.81 8.81 8.81 8.81 8.81 8.86 8.81 8.91 8.91 8.91 6.81 6.26 5.96 5.76 4.96 4.96 4.76 4.41 3.91 3.71 3.56 3.41 3.21 3.11 2.96 2.91 2.76 2.66 2.56 2.46 2.46 2.34 2.34 2.24 2.19 2.09 2.04 1.99 1.99 1.94 1.89 1.84 1.79 1.79 1.79 1.69 1.69 1.64 1.64 1.59 1.54 1.54 1.54 1.59 1.64 1.64 1.64 1.64 1.59 1.59 1.64 1.59 1.59 1.54 1.54 1.49 1.54 1.49 1.49 1.44 1.44 1.44 1.49 1.44 1.44 1.44 1.44 1.39 1.39 1.39 1.39 1.39 1.42 1.37 1.37 1.42 1.32 1.22 1.22 9.68223 -42.8626 -1.66487 9.68223 -42.8626 -1.66487 4.29497e+09 pippo 4.29497e+09
FLASER 180 0.77 0.72 0.72 0.77 0.72 0.72 0.77 0.77 0.77 0.77 0.77 0.74 0.74 0.79 0.74 0.79 0.79 0.79 0.79 0.79 0.74 0.79 0.79 0.84 0.84 0.84 0.84 0.84 0.84 0.84 0.89 0.89 0.89 0.94 0.89 0.94 0.94 0.94 0.99 0.99 1.04 1.04 1.04 1.04 1.04 1.09 1.14 1.14 1.14 1.24 1.24 1.24 1.29 1.34 1.34 1.44 1.44 1.49 1.54 1.59 1.64 1.69 1.79 1.84 1.89 1.99 2.04 2.14 2.21 2.36 2.46 2.61 2.81 3.06 3.66 3.81 3.84 4.31 4.86 5.06 5.66 7.81 7.76 7.81 7.76 7.71 7.76 7.76 7.76 7.76 7.76 7.81 7.81 7.81 7.76 7.81 7.86 7.86 7.91 7.96 5.76 5.36 5.01 4.91 4.71 4.11 3.94 3.96 3.81 3.66 3.51 3.16 3.06 2.91 2.76 2.71 2.61 2.56 2.49 2.44 2.34 2.29 2.24 2.14 2.14 2.04 2.04 1.99 1.89 1.89 1.84 1.84 1.79 1.74 1.69 1.69 1.69 1.64 1.59 1.59 1.59 1.54 1.54 1.49 1.49 1.44 1.49 1.44 1.39 1.39 1.39 1.39 1.34 1.34 1.39 1.34 1.34 1.34 1.29 1.29 1.29 1.27 1.29 1.32 1.27 1.27 1.27 1.32 1.27 1.27 1.27 1.22 1.27 1.22 1.22 1.27 1.27 1.27 1.22 1.22 9.56372 -43.8949 -1.60012 9.56372 -43.8949 -1.60012 4.29497e+09 pippo 4.29497e+09
FLASER 180 0.77 0.77 0.77 0.77 0.77 0.77 0.77 0.82 0.74 0.74 0.74 0.74 0.74 0.79 0.74 0.84 0.79 0.79 0.79 0.79 0.79 0.84 0.79 0.84 0.84 0.84 0.84 0.89 0.89 0.89 0.89 0.94 0.89 0.89 0.94 0.94 0.94 0.99 0.94 0.99 1.04 1.04 1.04 1.09 1.09 1.09 1.09 1.14 1.19 1.24 1.24 1.24 1.29 1.29 1.34 1.39 1.44 1.44 1.54 1.54 1.64 1.69 1.69 1.74 1.89 1.94 2.26 2.36 2.51 2.61 2.74 2.84 2.79 2.91 3.56 3.76 3.89 3.91 4.36 4.71 6.76 6.76 6.76 6.81 6.71 6.71 6.76 6.71 6.71 6.71 6.71 6.71 6.71 6.76 6.76 6.76 6.76 6.81 6.81 6.86 6.86 6.91 6.91 4.81 4.51 4.26 4.04 3.96 3.86 3.71 3.56 3.16 3.01 2.99 2.94 2.89 2.86 2.76 2.66 2.56 2.46 2.46 2.34 2.14 2.14 2.09 1.99 1.99 1.94 1.89 1.84 1.84 1.74 1.74 1.74 1.69 1.64 1.64 1.64 1.59 1.54 1.54 1.54 1.49 1.49 1.44 1.44 1.44 1.39 1.39 1.39 1.34 1.34 1.34 1.34 1.29 1.34 1.29 1.34 1.29 1.29 1.24 1.24 1.32 1.27 1.27 1.27 1.27 1.27 1.27 1.22 1.27 1.22 1.27 1.27 1.22 1.22 1.22 1.22 1.22 9.51182 -44.9249 -1.60657 9.51182 -44.9249 -1.60657 4.29497e+09 pippo 4.29497e+09
FLASER 180 0.77 0.77 0.82 0.77 0.77 0.77 0.77 0.77 0.82 0.74 0.77 0.74 0.79 0.79 0.79 0.79 0.79 0.79 0.79 0.84 0.79 0.79 0.84 0.84 0.84 0.84 0.84 0.84 0.89 0.84 0.89 0.94 0.94 0.89 0.94 0.94 0.94 0.99 0.94 0.99 1.04 1.04 1.04 1.04 1.04 1.19 1.24 1.29 1.29 1.34 1.39 1.39 1.44 1.49 1.49 1.54 1.59 1.64 1.69 1.74 1.74 1.79 1.84 1.84 1.87 1.89 1.96 2.31 2.46 2.56 2.71 2.79 2.89 2.89 3.01 3.21 3.46 3.71 5.76 5.76 5.76 5.76 5.71 5.71 5.66 5.66 5.66 5.66 5.71 5.71 5.66 5.66 5.71 5.71 5.71 5.71 5.76 5.71 5.76 5.76 5.81 5.81 5.81 5.86 5.86 5.91 6.16 6.21 3.71 3.56 3.41 3.26 3.11 3.04 3.01 2.99 2.86 2.76 2.66 2.61 2.51 2.51 2.24 2.19 2.14 2.09 2.09 2.09 2.04 2.04 2.04 1.99 1.94 1.89 1.89 1.84 1.79 1.79 1.74 1.74 1.74 1.69 1.64 1.64 1.59 1.54 1.44 1.39 1.39 1.39 1.39 1.34 1.34 1.39 1.29 1.29 1.34 1.34 1.29 1.29 1.29 1.24 1.24 1.29 1.32 1.27 1.27 1.27 1.22 1.27 1.27 1.27 1.22 1.27 1.22 1.22 1.22 1.22 1.22 1.22 9.42453 -46.0121 -1.60263 9.42453 -46.0121 -1.60263 4.29497e+09 pippo 4.29497e+09
FLASER 180 0.84 0.89 0.84 0.89 0.84 0.84 0.84 0.84 0.89 0.89 0.84 0.89 0.89 0.89 0.84 0.89 0.94 0.89 0.89 0.89 0.94 0.94 0.94 0.94 0.94 0.99 0.99 0.99 0.99 1.04 0.99 0.99 0.99 0.94 0.99 1.04 1.04 1.04 1.04 0.99 0.99 0.99 1.04 1.04 1.09 1.09 1.09 1.09 1.29 1.29 1.34 1.39 1.39 1.44 1.49 1.54 1.59 1.59 1.69 1.69 1.74 1.79 1.84 1.89 1.92 1.92 1.89 1.99 2.14 2.16 2.26 2.36 2.56 2.69 5.01 4.81 4.76 4.76 4.71 4.71 4.66 4.66 4.69 4.66 4.66 4.69 4.64 4.69 4.69 4.69 4.64 4.64 4.66 4.66 4.64 4.66 4.66 4.66 4.71 4.71 4.71 4.76 4.76 4.76 4.81 4.81 4.86 4.91 4.91 4.91 5.16 5.21 5.21 5.31 5.31 2.86 2.76 2.66 2.56 2.51 2.36 2.39 2.29 2.24 2.19 2.14 2.19 2.14 2.09 2.04 2.04 1.99 1.94 1.94 1.89 1.84 1.84 1.79 1.74 1.74 1.69 1.69 1.64 1.59 1.59 1.49 1.44 1.44 1.39 1.44 1.39 1.39 1.39 1.44 1.44 1.44 1.39 1.39 1.39 1.39 1.39 1.44 1.44 1.39 1.39 1.34 1.39 1.34 1.34 1.34 1.34 1.34 1.34 1.34 1.34 1.34 1.34 1.29 1.34 1.34 9.3732 -47.0541 -1.6292 9.3732 -47.0541 -1.6292 4.29497e+09 pippo 4.29497e+09
FLASER 180 0.84 0.84 0.84 0.84 0.84 0.79 0.84 0.84 0.84 0.84 0.84 0.84 0.84 0.84 0.84 0.84 0.89 0.84 0.89 0.84 0.89 0.89 0.89 0.89 0.89 0.94 0.94 0.94 0.94 0.99 0.94 0.99 0.99 0.99 1.04 1.04 0.99 0.99 1.04 1.04 1.04 1.09 1.04 1.04 1.04 0.99 1.04 1.09 1.04 1.14 1.14 1.19 1.19 1.19 1.24 1.29 1.29 1.39 1.39 1.39 1.44 1.49 1.54 1.59 1.64 1.74 1.91 4.11 4.14 4.09 4.06 4.09 3.84 3.84 3.79 3.74 3.74 3.74 3.74 3.74 3.69 3.69 3.69 3.64 3.69 3.64 3.64 3.64 3.64 3.64 3.64 3.64 3.59 3.64 3.64 3.64 3.64 3.64 3.64 3.69 3.64 3.69 3.69 3.69 3.79 3.74 3.79 3.79 3.79 3.84 3.89 3.89 3.94 3.99 3.94 3.94 4.06 4.26 4.31 4.31 4.41 4.46 4.46 4.51 4.56 4.61 4.56 4.56 4.56 1.99 1.99 1.89 1.89 1.84 1.84 1.79 1.74 1.69 1.69 1.69 1.64 1.59 1.59 1.59 1.54 1.54 1.49 1.49 1.44 1.44 1.44 1.44 1.47 1.49 1.49 1.44 1.44 1.49 1.49 1.44 1.44 1.44 1.44 1.39 1.44 1.39 1.39 1.39 1.34 1.39 1.34 1.34 1.39 1.34 1.34 1.34 1.34 1.39 1.34 1.34 9.2746 -48.0586 -1.63212 9.2746 -48.0586 -1.63212 4.29497e+09 pippo 4.29497e+09
FLASER 180 0.69 0.72 0.72 0.72 0.72 0.72 0.72 0.72 0.72 0.72 0.69 0.72 0.69 0.69 0.74 0.74 0.69 0.69 0.69 0.74 0.69 0.74 0.74 0.74 0.74 0.74 0.79 0.79 0.74 0.79 0.79 0.79 0.79 0.79 0.84 0.84 0.84 0.89 0.89 0.89 0.89 0.89 3.96 3.86 3.81 3.71 3.66 3.61 3.59 3.46 3.49 3.39 3.36 3.44 3.49 3.49 3.39 3.34 3.34 3.34 3.29 3.19 3.19 3.19 3.14 3.14 3.09 2.84 2.89 2.84 2.79 2.79 2.74 2.74 2.74 2.69 2.69 2.69 2.69 2.64 2.69 2.64 2.64 2.64 2.59 2.59 2.59 2.59 2.59 2.59 2.59 2.59 2.59 2.64 2.59 2.59 2.59 2.59 2.59 2.59 2.64 2.64 2.64 2.64 2.69 2.64 2.69 2.69 2.74 2.74 2.74 2.79 2.84 2.79 2.79 2.89 2.89 2.89 2.94 2.94 2.99 3.04 3.04 3.09 3.09 3.14 3.44 3.49 3.49 3.59 3.56 3.61 3.66 3.76 3.76 3.86 3.81 3.76 3.81 3.86 3.91 4.06 4.16 4.21 4.31 4.41 4.56 4.61 4.76 4.91 5.01 5.16 5.36 5.56 5.71 5.86 6.11 1.39 1.39 1.39 1.39 1.34 1.34 1.37 1.32 1.32 1.32 1.32 1.37 1.29 1.32 1.32 1.32 1.32 1.27 1.32 1.32 1.32 1.27 1.27 9.18084 -49.0962 -1.64577 9.18084 -49.0962 -1.64577 4.29497e+09 pippo 4.29497e+09
FLASER 180 0.95 1.03 1.08 1.13 1.18 1.23 1.28 1.35 1.45 1.55 1.65 1.75 1.9 2.1 2.3 2.5 2.8 3.25 3.7 4.45 5.3 7.35 9.45 15.9 15.9 15.9 15.9 15.9 15.9 13.65 12.1 12.15 11.45 11.4 9.2 8.45 7.7 7.1 6.65 6.25 5.8 5.5 5.2 4.95 4.7 4.45 4.25 4.15 3.95 3.8 3.65 3.5 3.4 3.25 3.2 3.05 3.03 2.93 2.83 2.83 2.73 2.68 2.58 2.58 2.63 2.63 2.63 2.63 2.58 2.48 2.43 2.43 2.43 2.38 2.33 2.28 2.23 2.23 2.23 2.18 2.13 1.88 1.88 1.83 1.83 1.83 1.78 1.73 1.73 1.73 1.73 1.71 1.68 1.68 1.68 1.68 1.68 1.63 1.66 1.63 1.61 1.61 1.61 1.61 1.58 1.58 1.61 1.61 1.61 1.61 1.61 1.61 1.61 1.56 1.56 1.61 1.61 1.56 1.56 1.61 1.56 1.58 1.56 1.58 1.53 1.61 1.58 1.58 1.58 1.63 1.63 1.63 1.63 1.63 1.68 1.68 1.68 1.68 1.73 1.73 1.73 1.78 1.78 1.78 1.83 1.83 1.83 1.83 1.88 1.88 1.93 1.93 1.98 1.98 2.03 2.08 2.08 2.13 2.18 2.18 2.23 2.28 2.28 2.38 2.38 2.73 2.83 2.88 2.98 3.05 3.1 3.15 3.25 3.23 3.28 3.23 3.25 3.4 3.55 3.65 9.10311 -50.1132 -2.05865 9.10311 -50.1132 -2.05865 4.29497e+09 pippo 4.29497e+09
