FLASER 240 1.00403 1.00437 1.00540 1.00711 1.00951 1.01262 1.01644 1.02098 1.02626 1.03231 1.03914 1.04678 1.05525 1.06460 1.07485 1.08605 1.09824 1.11148 1.12582 1.14133 1.15807 1.17613 1.19560 1.21657 1.23915 1.26348 1.28969 1.31793 1.34839 1.38127 1.41680 1.45523 1.49687 1.54207 1.54642 1.51495 1.48572 1.45859 1.43340 1.41001 1.38832 1.36820 1.34957 1.33234 1.31643 1.30178 1.28832 1.27601 1.26478 1.25459 1.24541 1.23721 1.22994 1.22359 1.21813 1.21354 1.20981 1.20692 1.20486 1.20363 1.20322 1.20363 1.20486 1.20692 1.20981 1.21354 1.21813 1.22359 1.22994 1.23721 1.24541 1.25459 1.26478 1.27601 1.28832 1.30178 1.31643 1.33234 1.34957 1.36820 1.38832 1.41001 1.43340 1.45859 1.48572 1.51495 1.54642 1.58035 1.61694 1.65642 1.69909 1.74524 1.79525 1.84952 1.90854 1.97285 2.04311 2.12009 2.20467 2.29795 2.40120 2.51600 2.64425 2.78832 2.95115 3.13651 3.34917 3.59546 3.88376 4.22552 4.63675 5.14063 5.77183 6.58496 7.08730 7.06045 7.03861 7.02170 7.00966 7.00245 7.00005 7.00245 7.00966 7.02170 7.03861 7.06046 7.08731 7.11927 7.15644 7.19896 7.24698 7.30069 7.36028 3.20593 2.98636 2.79677 2.63153 2.48638 2.35795 2.24362 2.14129 2.04925 1.96611 1.89071 1.82210 1.75948 1.70216 1.64956 1.60119 1.55662 1.51548 1.47746 1.44227 1.40967 1.37944 1.35139 1.32535 1.30117 1.27872 1.25789 1.23855 1.22063 1.20403 1.21101 1.28139 1.36152 1.45348 1.56001 1.68474 1.83264 2.01064 6.99329 6.95198 6.91588 6.88483 6.85875 6.83753 6.82110 6.80941 6.80241 6.80008 6.80241 6.80941 6.82110 6.83753 6.85875 6.39265 5.48763 4.81004 4.28407 3.86420 3.52154 3.23678 2.99656 2.79136 2.61417 2.45974 2.32408 2.20406 2.09722 2.00159 1.91558 1.83788 1.76743 1.70332 1.64480 1.59123 1.54208 1.49689 1.45524 1.41681 1.38128 1.34840 1.31794 1.28970 1.26349 1.23916 1.21657 1.19560 1.17614 1.15807 1.14133 1.12582 1.11148 1.09824 1.08605 1.07485 1.06460 1.05525 1.04678 1.03914 1.03231 1.02627 1.02098 1.01644 1.01262 1.00951 1.00711 1.00540 1.00437 0.000000 0.000000 0.000000 0.000000 0.000000 0.000000
FLASER 240 1.48577 1.48627 1.48780 1.49034 1.49392 1.49854 1.50421 1.51097 1.51883 1.52782 1.53798 1.54934 1.56194 1.57583 1.59108 1.60773 1.62586 1.64554 1.66685 1.68991 1.71479 1.74164 1.77057 1.80174 1.83530 1.87145 1.90854 1.84952 1.79525 1.74524 1.69909 1.65642 1.61694 1.58035 1.54642 1.51495 1.48572 1.45859 1.43340 1.41001 1.38832 1.36820 1.34957 1.33234 1.31643 1.30178 1.28832 1.27601 1.26478 1.25459 1.24541 1.23721 1.22994 1.22359 1.21813 1.21354 1.20981 1.20692 1.20486 1.20363 1.20322 1.20363 1.20486 1.20692 1.20981 1.21354 1.21813 1.22359 1.22994 1.23721 1.24541 1.25459 1.26478 1.27601 1.28832 1.30178 1.31643 1.33234 1.34957 1.36820 1.38832 1.41001 1.43340 1.45859 1.48572 1.51495 1.54642 1.58035 1.61694 1.65642 1.69909 1.74524 1.79525 1.84952 1.90854 1.97285 2.04311 2.12009 2.20467 2.29795 2.40120 2.51600 2.64425 2.78832 2.95115 3.13651 3.34917 3.59546 3.88376 4.22552 4.63675 5.14063 5.77183 6.58496 6.59797 6.57297 6.55264 6.53690 6.52569 6.51898 6.51675 6.51898 6.52569 6.53690 6.55265 6.57298 6.59798 6.62773 6.66233 6.70191 6.74662 6.79662 6.85210 6.91327 6.98036 2.79677 2.63153 2.48637 2.35794 2.24362 2.14129 2.04925 1.96611 1.89071 1.82210 1.75948 1.70215 1.64955 1.60118 1.55662 1.51548 1.47746 1.44227 1.40967 1.37944 1.35138 1.32535 1.30117 1.27872 1.25788 1.23855 1.22063 1.20403 1.18868 1.17451 1.16145 1.14946 1.13849 1.12848 1.11941 1.11124 1.10392 1.09745 1.09179 1.08693 1.08284 1.07952 1.07694 1.07511 1.40257 6.80008 6.80241 6.80941 6.82110 6.83753 6.85875 6.88483 6.91588 6.95198 6.35426 5.73136 5.22298 4.80047 4.44405 4.13956 3.87663 3.64747 3.44614 3.26802 3.10944 2.96750 2.83982 2.72449 2.61989 2.52470 2.43781 2.35827 2.28529 2.21817 2.15632 2.09923 2.04646 1.99762 1.95236 1.91040 1.87146 1.83531 1.80174 1.77058 1.74165 1.71480 1.68991 1.66686 1.64554 1.62586 1.60773 1.59108 1.57584 1.56194 1.54934 1.53798 1.52783 1.51883 1.51097 1.50422 1.49854 1.49392 1.49034 1.48780 1.48627 0.000000 0.000000 0.000000 0.000000 0.000000 0.000000
FLASER 240 1.96830 1.96897 1.97099 1.97437 1.97912 1.98524 1.99278 2.00175 2.01218 2.02411 2.03759 2.05266 2.06938 2.08782 2.10805 2.13014 2.15420 2.18031 2.20860 2.23919 2.27221 2.29795 2.20467 2.12009 2.04311 1.97285 1.90854 1.84952 1.79525 1.74524 1.69909 1.65642 1.61694 1.58035 1.54642 1.51495 1.48572 1.45859 1.43340 1.41001 1.38832 1.36820 1.34957 1.33234 1.31643 1.30178 1.28832 1.27601 1.26478 1.25459 1.24541 1.23721 1.22994 1.22359 1.21813 1.21354 1.20981 1.20692 1.20486 1.20363 1.20322 1.20363 1.20486 1.20692 1.20981 1.21354 1.21813 1.22359 1.22994 1.23721 1.24541 1.25459 1.26478 1.27601 1.28832 1.30178 1.31643 1.33234 1.34957 1.36820 1.38832 1.41001 1.43340 1.45859 1.48572 1.51495 1.54642 1.58035 1.61694 1.65642 1.69909 1.74524 1.79525 1.84952 1.90854 1.97285 2.04311 2.12009 2.20467 2.29795 2.40120 2.51600 2.64425 2.78832 2.95115 3.13651 3.34917 3.59546 3.88376 4.22552 4.63675 5.14063 5.77183 6.13619 6.10865 6.08551 6.06668 6.05211 6.04173 6.03552 6.03345 6.03552 6.04173 6.05211 6.06669 6.08551 6.10866 6.13620 6.16824 6.20488 6.24627 6.29256 6.34392 6.40055 6.46267 6.53052 6.60439 6.68458 2.35794 2.24361 2.14128 2.04924 1.96610 1.89071 1.82210 1.75947 1.70215 1.64955 1.60118 1.55661 1.51548 1.47746 1.44227 1.40967 1.37943 1.35138 1.32534 1.30117 1.27872 1.25788 1.23855 1.22063 1.20403 1.18867 1.17450 1.16145 1.14946 1.13849 1.12848 1.11941 1.11123 1.10392 1.09745 1.09179 1.08693 1.08284 1.07952 1.07694 1.07511 1.07401 1.07365 1.07401 1.07511 1.07694 1.07952 1.08284 1.08693 1.09179 1.09745 1.10392 1.11124 1.11941 1.12849 1.13849 1.14946 1.16145 4.83552 4.56855 4.33233 4.12204 3.93380 3.76448 3.61152 3.47280 3.34655 3.23131 3.12582 3.02901 2.93998 2.85794 2.78222 2.71222 2.64743 2.58739 2.53172 2.48006 2.43210 2.38757 2.34622 2.30784 2.27222 2.23920 2.20861 2.18032 2.15421 2.13015 2.10806 2.08783 2.06939 2.05266 2.03759 2.02411 2.01218 2.00175 1.99278 1.98525 1.97912 1.97437 1.97099 1.96897 0.000000 0.000000 0.000000 0.000000 0.000000 0.000000
FLASER 240 2.45115 2.45199 2.45451 2.45872 2.46464 2.47228 2.48167 2.49284 2.50584 2.52071 2.53751 2.55630 2.57714 2.60012 2.62533 2.65286 2.68284 2.71539 2.64425 2.51600 2.40120 2.29795 2.20467 2.12009 2.04311 1.97285 1.90854 1.84952 1.79525 1.74524 1.69909 1.65642 1.61694 1.58035 1.54642 1.51495 1.48572 1.45859 1.43340 1.41001 1.38832 1.36820 1.34957 1.33234 1.31643 1.30178 1.28832 1.27601 1.26478 1.25459 1.24541 1.23721 1.22994 1.22359 1.21813 1.21354 1.20981 1.20692 1.20486 1.20363 1.20322 1.20363 1.20486 1.20692 1.20981 1.21354 1.21813 1.22359 1.22994 1.23721 1.24541 1.25459 1.26478 1.27601 1.28832 1.30178 1.31643 1.33234 1.34957 1.36820 1.38832 1.41001 1.43340 1.45859 1.48572 1.51495 1.54642 1.58035 1.61694 1.65642 1.69909 1.74524 1.79525 1.84952 1.90854 1.97285 2.04311 2.12009 2.20467 2.29795 2.40120 2.51600 2.64425 2.78832 2.95115 3.13651 3.34917 3.59546 3.88376 4.22552 4.63675 5.14063 5.67414 5.64467 5.61934 5.59805 5.58073 5.56733 5.55778 5.55207 5.55017 5.55207 5.55778 5.56733 5.58074 5.59806 5.61934 5.64468 5.67415 5.70786 5.74594 5.78851 5.83576 5.88785 5.94499 6.00741 6.07536 6.14912 6.22903 6.31542 6.40869 6.50929 6.61771 1.89070 1.82210 1.75947 1.70215 1.64955 1.60118 1.55661 1.51548 1.47746 1.44227 1.40966 1.37943 1.35138 1.32534 1.30116 1.27872 1.25788 1.23855 1.22062 1.20402 1.18867 1.17450 1.16145 1.14946 1.13849 1.12848 1.11941 1.11123 1.10392 1.09745 1.09179 1.08693 1.08284 1.07951 1.07694 1.07511 1.07401 1.07365 1.07401 1.07511 1.07694 1.07951 1.08284 1.08693 1.09179 1.09745 1.10392 1.11123 1.11941 1.12848 1.13849 1.14946 1.16145 1.17451 1.18868 1.20403 1.22063 1.23855 1.25789 1.27872 1.30117 1.32535 1.35139 1.37944 1.40967 3.66201 3.55979 3.46544 3.37821 3.29748 3.22267 3.15330 3.08893 3.02916 2.97367 2.92214 2.87431 2.82992 2.78877 2.75065 2.71540 2.68285 2.65287 2.62533 2.60013 2.57714 2.55630 2.53752 2.52072 2.50585 2.49285 2.48167 2.47228 2.46464 2.45872 2.45451 2.45199 0.000000 0.000000 0.000000 0.000000 0.000000 0.000000
FLASER 240 2.93417 2.93518 2.93820 2.94324 2.95032 2.95947 2.97072 2.98410 2.99967 3.01748 3.03759 3.06009 3.08505 3.11257 3.14276 3.13651 2.95115 2.78832 2.64425 2.51600 2.40120 2.29795 2.20467 2.12009 2.04311 1.97285 1.90854 1.84952 1.79525 1.74524 1.69909 1.65642 1.61694 1.58035 1.54642 1.51495 1.48572 1.45859 1.43340 1.41001 1.38832 1.36820 1.34957 1.33234 1.31643 1.30178 1.28832 1.27601 1.26478 1.25459 1.24541 1.23721 1.22994 1.22359 1.21813 1.21354 1.20981 1.20692 1.20486 1.20363 1.20322 1.20363 1.20486 1.20692 1.20981 1.21354 1.21813 1.22359 1.22994 1.23721 1.24541 1.25459 1.26478 1.27601 1.28832 1.30178 1.31643 1.33234 1.34957 1.36820 1.38832 1.41001 1.43340 1.45859 1.48572 1.51495 1.54642 1.58035 1.61694 1.65642 1.69909 1.74524 1.79525 1.84952 1.90854 1.97285 2.04311 2.12009 2.20467 2.29795 2.40120 2.51600 2.64425 2.78832 2.95115 3.13651 3.34917 3.59546 3.88376 4.22552 4.63675 5.14063 5.18007 5.15317 5.13004 5.11061 5.09480 5.08256 5.07385 5.06863 5.06690 5.06863 5.07385 5.08256 5.09480 5.11061 5.13005 5.15317 5.18008 5.21085 5.24561 5.28448 5.32761 5.37516 5.42732 5.48430 5.54634 5.61367 5.68662 5.76548 5.85063 5.94247 6.04144 6.14805 6.26286 6.38650 6.51968 6.66320 6.81796 1.55661 1.51547 1.47745 1.44226 1.40966 1.37943 1.35138 1.32534 1.30116 1.27871 1.25788 1.23854 1.22062 1.20402 1.18867 1.17450 1.16145 1.14946 1.13848 1.12848 1.11941 1.11123 1.10392 1.09745 1.09179 1.08692 1.08284 1.07951 1.07694 1.07511 1.07401 1.07364 1.07401 1.07511 1.07694 1.07951 1.08284 1.08693 1.09179 1.09745 1.10392 1.11123 1.11941 1.12848 1.13849 1.14946 1.16145 1.17450 1.18867 1.20403 1.22063 1.23855 1.25788 1.27872 1.30117 1.32535 1.35139 1.37944 1.40967 1.44227 1.47746 1.51549 1.55662 1.60119 1.64956 1.70216 1.75948 3.62636 3.55990 3.49820 3.44092 3.38776 3.33848 3.29283 3.25062 3.21165 3.17574 3.14277 3.11258 3.08506 3.06010 3.03760 3.01748 2.99967 2.98411 2.97072 2.95947 2.95032 2.94324 2.93820 2.93518 0.000000 0.000000 0.000000 0.000000 0.000000 0.000000
FLASER 240 3.41729 3.41846 3.42198 3.42785 3.43610 3.44676 3.45986 3.47545 3.49359 3.51434 3.53777 3.56398 3.59305 3.59546 3.34917 3.13651 2.95115 2.78832 2.64425 2.51600 2.40120 2.29795 2.20467 2.12009 2.04311 1.97285 1.90854 1.84952 1.79525 1.74524 1.69909 1.65642 1.61694 1.58035 1.54642 1.51495 1.48572 1.45859 1.43340 1.41001 1.38832 1.36820 1.34957 1.33234 1.31643 1.30178 1.28832 1.27601 1.26478 1.25459 1.24541 1.23721 1.22994 1.22359 1.21813 1.21354 1.20981 1.20692 1.20486 1.20363 1.20322 1.20363 1.20486 1.20692 1.20981 1.21354 1.21813 1.22359 1.22994 1.23721 1.24541 1.25459 1.26478 1.27601 1.28832 1.30178 1.31643 1.33234 1.34957 1.36820 1.38832 1.41001 1.43340 1.45859 1.48572 1.51495 1.54642 1.58035 1.61694 1.65642 1.69909 1.74524 1.79525 1.84952 1.90854 1.97285 2.04311 2.12009 2.20467 2.29795 2.40120 2.51600 2.64425 2.78832 2.95115 3.13651 3.34917 3.59546 3.88376 4.22552 4.63675 4.71385 4.68602 4.66168 4.64076 4.62318 4.60888 4.59781 4.58993 4.58521 4.58364 4.58521 4.58993 4.59781 4.60889 4.62319 4.64077 4.66169 4.68602 4.71386 4.74530 4.78046 4.81948 4.86249 4.90968 4.96122 5.01733 5.07824 5.14422 5.21556 5.29259 5.37566 5.46519 5.56162 5.66548 5.77732 5.89779 6.02762 6.16761 6.31869 6.48192 6.65848 6.84977 7.05735 7.28306 7.52901 7.79769 8.09200 3.48326 1.25788 1.23854 1.22062 1.20402 1.18867 1.17450 1.16144 1.14946 1.13848 1.12848 1.11940 1.11123 1.10392 1.09744 1.09179 1.08692 1.08284 1.07951 1.07694 1.07510 1.07401 1.07364 1.07401 1.07511 1.07694 1.07951 1.08284 1.08692 1.09179 1.09745 1.10392 1.11123 1.11941 1.12848 1.13848 1.14946 1.16145 1.17450 1.18867 1.20402 1.22062 1.23855 1.25788 1.27872 1.30117 1.32534 1.35138 1.37943 1.40967 1.44227 1.47746 1.51548 1.55662 1.60119 1.64956 1.70216 1.75948 1.82211 1.89072 1.96612 2.04926 2.14130 3.88828 3.83511 3.78593 3.74053 3.69870 3.66029 3.62512 3.59306 3.56398 3.53778 3.51434 3.49360 3.47546 3.45987 3.44676 3.43610 3.42785 3.42198 3.41846 0.000000 0.000000 0.000000 0.000000 0.000000 0.000000
FLASER 240 3.90047 3.90180 3.90582 3.91252 3.92194 3.93411 3.94906 3.96686 3.98757 4.01125 4.03800 4.06792 3.88376 3.59546 3.34917 3.13651 2.95115 2.78832 2.64425 2.51600 2.40120 2.29795 2.20467 2.12009 2.04311 1.97285 1.90854 1.84952 1.79525 1.74524 1.69909 1.65642 1.61694 1.58035 1.54642 1.51495 1.48572 1.45859 1.43340 1.41001 1.38832 1.36820 1.34957 1.33234 1.31643 1.30178 1.28832 1.27601 1.26478 1.25459 1.24541 1.23721 1.22994 1.22359 1.21813 1.21354 1.20981 1.20692 1.20486 1.20363 1.20322 1.20363 1.20486 1.20692 1.20981 1.21354 1.21813 1.22359 1.22994 1.23721 1.24541 1.25459 1.26478 1.27601 1.28832 1.30178 1.31643 1.33234 1.34957 1.36820 1.38832 1.41001 1.43340 1.45859 1.48572 1.51495 1.54642 1.58035 1.61694 1.65642 1.69909 1.74524 1.79525 1.84952 1.90854 1.97285 2.04311 2.12009 2.20467 2.29795 2.40120 2.51600 2.64425 2.78832 2.95115 3.13651 3.34917 3.59546 3.88376 4.22552 4.24501 4.21688 4.19199 4.17022 4.15151 4.13578 4.12299 4.11309 4.10604 4.10182 4.10041 4.10182 4.10604 4.11309 4.12299 4.13579 4.15151 4.17022 4.19199 4.21689 4.24502 4.27647 4.31137 4.34984 4.39205 4.43815 4.48834 4.54283 4.60185 4.66567 4.73456 4.80887 4.88896 4.97522 5.06812 5.16816 5.27593 5.39206 5.51728 5.65243 5.79843 5.95637 6.12748 6.31317 6.51507 6.73508 6.97542 7.23869 7.52799 7.84696 7.85199 7.73771 7.63186 3.23670 3.19774 3.16183 3.12885 3.09865 3.07111 3.04612 3.02359 3.00344 2.98558 2.96996 1.08692 1.08283 1.07951 1.07694 1.07510 1.07401 1.07364 1.07401 1.07510 1.07694 1.07951 1.08283 1.08692 1.09179 1.09744 1.10392 1.11123 1.11940 1.12848 1.13848 1.14946 1.16145 1.17450 1.18867 1.20402 1.22062 1.23855 1.25788 1.27872 1.30116 1.32534 1.35138 1.37943 1.40966 1.44227 1.47746 1.51548 1.55661 1.60118 1.64955 1.70215 1.75948 1.82210 1.89071 1.96611 2.04926 2.14130 2.24363 2.35796 2.48639 4.26946 4.22172 4.17787 4.13772 4.10112 4.06793 4.03801 4.01126 3.98757 3.96687 3.94907 3.93411 3.92194 3.91252 3.90582 3.90180 0.000000 0.000000 0.000000 0.000000 0.000000 0.000000
FLASER 240 4.38368 4.38518 4.38970 4.39723 4.40782 4.42150 4.43831 4.45831 4.48159 4.50821 4.53827 4.22552 3.88376 3.59546 3.34917 3.13651 2.95115 2.78832 2.64425 2.51600 2.40120 2.29795 2.20467 2.12009 2.04311 1.97285 1.90854 1.84952 1.79525 1.74524 1.69909 1.65642 1.61694 1.58035 1.54642 1.51495 1.48572 1.45859 1.43340 1.41001 1.38832 1.36820 1.34957 1.33234 1.31643 1.30178 1.28832 1.27601 1.26478 1.25459 1.24541 1.23721 1.22994 1.22359 1.21813 1.21354 1.20981 1.20692 1.20486 1.20363 1.20322 1.20363 1.20486 1.20692 1.20981 1.21354 1.21813 1.22359 1.22994 1.23721 1.24541 1.25459 1.26478 1.27601 1.28832 1.30178 1.31643 1.33234 1.34957 1.36820 1.38832 1.41001 1.43340 1.45859 1.48572 1.51495 1.54642 1.58035 1.61694 1.65642 1.69909 1.74524 1.79525 1.84952 1.90854 1.97285 2.04311 2.12009 2.20467 2.29795 2.40120 2.51600 2.64425 2.78832 2.95115 3.13651 3.34917 3.59546 3.80328 3.77250 3.74476 3.71995 3.69799 3.67879 3.66228 3.64842 3.63713 3.62840 3.62218 3.61846 3.61722 3.61846 3.62218 3.62840 3.63714 3.64842 3.66229 3.67879 3.69799 3.71996 3.74476 3.77251 3.80329 3.83723 3.87445 3.91512 3.95939 4.00745 4.05951 4.11580 4.17657 4.24212 4.31275 4.38884 4.47079 4.55903 4.65409 4.75652 4.86698 4.98619 5.11498 5.25429 5.40522 5.56902 5.74711 5.94118 6.15318 6.38541 6.64059 6.92195 7.23341 7.57965 7.63186 7.53395 7.44357 7.36031 7.28384 7.21383 7.15000 3.04693 3.02439 3.00423 2.98637 2.97074 2.95729 2.94597 2.93674 2.92956 2.92442 2.92129 2.92017 2.92105 6.80941 6.82110 6.83753 6.85875 1.94059 1.66648 1.46136 1.30221 1.17524 1.11940 1.12848 1.13848 1.14946 1.16144 1.17450 1.18867 1.20402 1.22062 1.23854 1.25788 1.27871 1.30116 1.32534 1.35138 1.37943 1.40966 1.44227 1.47746 1.51548 1.55661 1.60118 1.64955 1.70215 1.75947 1.82210 1.89071 1.96611 2.04925 2.14129 2.24363 2.35795 2.48638 2.63155 2.79679 2.98638 4.65036 4.60922 4.57191 4.53828 4.50821 4.48159 4.45832 4.43831 4.42150 4.40782 4.39724 4.38970 4.38519 0.000000 0.000000 0.000000 0.000000 0.000000 0.000000
FLASER 240 4.86693 4.86860 4.87360 4.88197 4.89373 4.90891 4.92758 4.94979 4.97563 5.00519 4.63675 4.22552 3.88376 3.59546 3.34917 3.13651 2.95115 2.78832 2.64425 2.51600 2.40120 2.29795 2.20467 2.12009 2.04311 1.97285 1.90854 1.84952 1.79525 1.74524 1.69909 1.65642 1.61694 1.58035 1.54642 1.51495 1.48572 1.45859 1.43340 1.41001 1.38832 1.36820 1.34957 1.33234 1.31643 1.30178 1.28832 1.27601 1.26478 1.25459 1.24541 1.23721 1.22994 1.22359 1.21813 1.21354 1.20981 1.20692 1.20486 1.20363 1.20322 1.20363 1.20486 1.20692 1.20981 1.21354 1.21813 1.22359 1.22994 1.23721 1.24541 1.25459 1.26478 1.27601 1.28832 1.30178 1.31643 1.33234 1.34957 1.36820 1.38832 1.41001 1.43340 1.45859 1.48572 1.51495 1.54642 1.58035 1.61694 1.65642 1.69909 1.74524 1.79525 1.84952 1.90854 1.97285 2.04311 2.12009 2.20467 2.29795 2.40120 2.51600 2.64425 2.78832 2.95115 3.13651 3.34917 3.32465 3.29525 3.26859 3.24455 3.22307 3.20404 3.18741 3.17311 3.16110 3.15133 3.14376 3.13837 3.13515 3.13408 3.13515 3.13837 3.14376 3.15133 3.16110 3.17312 3.18742 3.20405 3.22307 3.24456 3.26859 3.29526 3.32466 3.35691 3.39213 3.43048 3.47212 3.51722 3.56597 3.61862 3.67540 3.73659 3.80251 3.87349 3.94994 4.03229 4.12102 4.21671 4.31998 4.43155 4.55224 4.68300 4.82489 4.97918 5.14730 5.33096 5.53215 5.75322 5.99697 6.26679 6.56676 6.90185 7.27825 7.44357 7.36031 7.28384 7.21383 7.15000 7.09211 7.03994 6.99329 6.95198 6.91588 2.95807 2.94674 2.93751 2.93033 2.92519 2.92206 2.92094 2.92182 2.92470 2.92960 2.93653 2.94551 2.95658 2.96977 6.95198 6.99329 7.03994 7.09211 7.15000 7.21383 2.19646 2.05714 1.93572 1.82907 1.73471 1.65072 1.57555 1.50794 1.44688 1.39151 1.34113 1.35138 1.37943 1.40966 1.44226 1.47745 1.51548 1.55661 1.60118 1.64955 1.70215 1.75947 1.82210 1.89071 1.96611 2.04925 2.14129 2.24362 2.35795 2.48638 2.63154 2.79678 2.98638 3.20595 3.46298 5.07592 5.03858 5.00520 4.97564 4.94980 4.92758 4.90892 4.89373 4.88197 4.87361 4.86860 0.000000 0.000000 0.000000 0.000000 0.000000 0.000000
FLASER 240 5.35019 5.35203 5.35753 5.36673 5.37966 5.39635 5.41687 5.44129 5.46970 5.14063 4.63675 4.22552 3.88376 3.59546 3.34917 3.13651 2.95115 2.78832 2.64425 2.51600 2.40120 2.29795 2.20467 2.12009 2.04311 1.97285 1.90854 1.84952 1.79525 1.74524 1.69909 1.65642 1.61694 1.58035 1.54642 1.51495 1.48572 1.45859 1.43340 1.41001 1.38832 1.36820 1.34957 1.33234 1.31643 1.30178 1.28832 1.27601 1.26478 1.25459 1.24541 1.23721 1.22994 1.22359 1.21813 1.21354 1.20981 1.20692 1.20486 1.20363 1.20322 1.20363 1.20486 1.20692 1.20981 1.21354 1.21813 1.22359 1.22994 1.23721 1.24541 1.25459 1.26478 1.27601 1.28832 1.30178 1.31643 1.33234 1.34957 1.36820 1.38832 1.41001 1.43340 1.45859 1.48572 1.51495 1.54642 1.58035 1.61694 1.65642 1.69909 1.74524 1.79525 1.84952 1.90854 1.97285 2.04311 2.12009 2.20467 2.29795 2.40120 2.51600 2.64425 2.78832 2.90164 2.86921 2.83942 2.81215 2.78729 2.76475 2.74443 2.72626 2.71017 2.69611 2.68402 2.67386 2.66559 2.65920 2.65464 2.65192 2.65101 2.65192 2.65464 2.65920 2.66560 2.67386 2.68402 2.69611 2.71018 2.72626 2.74443 2.76475 2.78730 2.81216 2.83943 2.86922 2.90165 2.93685 2.97499 3.01622 3.06074 3.10875 3.16050 3.21624 3.27627 3.34091 3.41055 3.48559 3.56651 3.65384 3.74819 3.85025 3.96082 4.08082 4.21129 4.35347 4.50879 4.67893 4.86589 5.07203 5.30022 5.55390 5.83729 6.15562 6.51539 6.92489 7.28384 7.21383 7.15000 7.09211 7.03994 6.99329 6.95198 6.91588 6.88483 6.85875 6.83753 6.82110 6.80941 6.80241 6.80008 2.92259 2.92547 2.93037 2.93730 2.94629 2.95736 2.97055 2.98592 3.00352 3.02341 3.04566 3.07036 3.09761 7.28384 7.36031 7.44357 7.53395 7.63186 7.73771 7.85199 2.43176 2.33304 2.24351 2.16204 2.08767 2.01960 1.95713 1.89968 1.84675 1.79790 1.75274 1.71094 1.67221 1.70215 1.75947 1.82210 1.89071 1.96610 2.04925 2.14129 2.24362 2.35795 2.48638 2.63154 2.79678 2.98637 3.20594 3.46297 3.76767 5.53890 5.50220 5.46970 5.44130 5.41687 5.39635 5.37966 5.36673 5.35753 5.35203 0.000000 0.000000 0.000000 0.000000 0.000000 0.000000
FLASER 240 5.83347 5.83547 5.84148 5.85151 5.86560 5.88380 5.90617 5.93280 5.77183 5.14063 4.63675 4.22552 3.88376 3.59546 3.34917 3.13651 2.95115 2.78832 2.64425 2.51600 2.40120 2.29795 2.20467 2.12009 2.04311 1.97285 1.90854 1.84952 1.79525 1.74524 1.69909 1.65642 1.61694 1.58035 1.54642 1.51495 1.48572 1.45859 1.43340 1.41001 1.38832 1.36820 1.34957 1.33234 1.31643 1.30178 1.28832 1.27601 1.26478 1.25459 1.24541 1.23721 1.22994 1.22359 1.21813 1.21354 1.20981 1.20692 1.20486 1.20363 1.20322 1.20363 1.20486 1.20692 1.20981 1.21354 1.21813 1.22359 1.22994 1.23721 1.24541 1.25459 1.26478 1.27601 1.28832 1.30178 1.31643 1.33234 1.34957 1.36820 1.38832 1.41001 1.43340 1.45859 1.48572 1.51495 1.54642 1.58035 1.61693 1.65642 1.69909 1.74524 1.79525 1.84952 1.90854 1.97285 2.04311 2.12009 2.20467 2.29795 2.40120 2.46657 2.43287 2.40170 2.37292 2.34642 2.32207 2.29978 2.27946 2.26103 2.24443 2.22958 2.21643 2.20493 2.19505 2.18675 2.17999 2.17476 2.17104 2.16881 2.16807 2.16881 2.17104 2.17477 2.17999 2.18675 2.19505 2.20494 2.21643 2.22958 2.24443 2.26104 2.27947 2.29979 2.32208 2.34642 2.37293 2.40171 2.43288 2.46658 2.50297 2.54222 2.58451 2.63007 2.67914 2.73198 2.78891 2.85025 2.91639 2.98778 3.06491 3.14834 3.23874 3.33683 3.44349 3.55972 3.68670 3.82579 3.97863 4.14716 4.33371 4.54110 4.77279 5.03304 5.32717 5.66197 6.04608 6.49090 7.01159 7.09211 7.03994 6.99329 6.95198 6.91588 6.88483 6.85875 6.83753 6.82110 6.80941 6.80241 6.80008 6.80241 6.80941 6.82110 4.82434 3.85175 3.20752 2.97133 2.98671 3.00431 3.02420 3.04646 3.07117 3.09842 3.12833 3.16100 3.19657 3.23520 3.27705 7.73771 7.85199 7.97526 8.10809 8.25118 8.40528 8.57122 8.74997 2.70068 2.62132 2.54820 2.48070 2.41831 2.36055 2.30704 2.25742 2.21138 2.16863 2.12894 2.09208 2.05787 2.14128 2.24361 2.35794 2.48637 2.63153 2.79678 2.98637 3.20594 3.46297 3.76767 4.13430 5.99922 5.96378 5.93281 5.90618 5.88381 5.86560 5.85151 5.84148 5.83547 0.000000 0.000000 0.000000 0.000000 0.000000 0.000000
FLASER 240 6.31676 6.31893 6.32543 6.33629 6.35155 6.37126 6.39549 6.42433 5.77183 5.14063 4.63675 4.22552 3.88376 3.59546 3.34917 3.13651 2.95115 2.78832 2.64425 2.51600 2.40120 2.29795 2.20467 2.12009 2.04311 1.97285 1.90854 1.84952 1.79525 1.74524 1.69909 1.65642 1.61694 1.58035 1.54642 1.51495 1.48572 1.45859 1.43340 1.41001 1.38832 1.36820 1.34957 1.33234 1.31643 1.30178 1.28832 1.27601 1.26478 1.25459 1.24541 1.23721 1.22994 1.22359 1.21813 1.21354 1.20981 1.20692 1.20486 1.20363 1.20322 1.20363 1.20486 1.20692 1.20981 1.21354 1.21813 1.22359 1.22994 1.23721 1.24541 1.25459 1.26478 1.27601 1.28832 1.30178 1.31643 1.33234 1.34957 1.36820 1.38832 1.41001 1.43340 1.45859 1.48572 1.51495 1.54642 1.58035 1.61694 1.65642 1.69909 1.74524 1.79525 1.84952 1.90854 1.97285 2.04311 2.04410 2.00872 1.97587 1.94540 1.91714 1.89097 1.86677 1.84443 1.82385 1.80494 1.78764 1.77186 1.75755 1.74466 1.73313 1.72292 1.71399 1.70632 1.69988 1.69463 1.69057 1.68768 1.68595 1.68538 1.68595 1.68768 1.69057 1.69463 1.69988 1.70632 1.71400 1.72292 1.73313 1.74466 1.75756 1.77187 1.78764 1.80495 1.82385 1.84443 1.86678 1.89098 1.91715 1.94541 1.97588 2.00873 2.04411 2.08221 2.12325 2.16745 2.21509 2.26646 2.32191 2.38181 2.44660 2.51681 2.59300 2.67584 2.76612 2.86474 2.97278 3.09150 3.22241 3.36732 3.52842 3.70840 3.91056 4.13905 4.39914 4.69753 5.04310 5.44760 5.92709 6.50404 6.99329 6.95198 6.91588 6.88483 6.85875 6.83753 6.82110 6.80941 6.80241 6.80008 6.80241 6.80941 6.82110 6.83753 6.85875 6.88483 5.42413 4.74913 4.22617 3.80935 3.46958 3.18751 3.09924 3.12915 3.16183 3.19742 3.23605 3.27791 3.32317 3.37204 3.42476 3.48156 3.54276 8.40528 8.57122 8.74997 8.94260 9.15031 9.17649 8.93314 3.08421 3.01051 2.94223 2.87891 2.82014 2.76559 2.71494 2.66790 2.62424 2.58372 2.54616 2.51137 2.48637 2.63153 2.79677 2.98636 3.20593 3.46296 3.76766 4.13430 4.58353 6.45788 6.42434 6.39550 6.37127 6.35156 6.33630 6.32543 6.31893 0.000000 0.000000 0.000000 0.000000 0.000000 0.000000
FLASER 240 6.80007 6.80240 6.80940 6.82109 6.83752 6.85874 6.88482 6.58496 5.77183 5.14063 4.63675 4.22552 3.88376 3.59546 3.34917 3.13651 2.95115 2.78832 2.64425 2.51600 2.40120 2.29795 2.20467 2.12009 2.04311 1.97285 1.90854 1.84952 1.79525 1.74524 1.69909 1.65642 1.61694 1.58035 1.54642 1.51495 1.48572 1.45859 1.43340 1.41001 1.38832 1.36820 1.34957 1.33234 1.31643 1.30178 1.28832 1.27601 1.26478 1.25459 1.24541 1.23721 1.22994 1.22359 1.21813 1.21354 1.20981 1.20692 1.20486 1.20363 1.20322 1.20363 1.20486 1.20692 1.20981 1.21354 1.21813 1.22359 1.22994 1.23721 1.24541 1.25459 1.26478 1.27601 1.28832 1.30178 1.31643 1.33234 1.34957 1.36820 1.38832 1.41001 1.43340 1.45859 1.48572 1.51495 1.54642 1.58035 1.61694 1.65642 1.69907 1.65640 1.61692 1.58033 1.54641 1.51493 1.48571 1.45858 1.43338 1.41000 1.38830 1.36818 1.34955 1.33232 1.31642 1.30177 1.28831 1.27599 1.26476 1.25458 1.24540 1.23720 1.22993 1.22358 1.21812 1.21353 1.20980 1.20691 1.20485 1.20362 1.20321 1.20362 1.20485 1.20691 1.20980 1.21353 1.21812 1.22358 1.22993 1.23720 1.24540 1.25458 1.26477 1.27600 1.28832 1.30177 1.31642 1.33233 1.34956 1.36819 1.38831 1.41001 1.43339 1.45858 1.48572 1.51494 1.54642 1.58034 1.61693 1.65641 1.69908 1.74523 1.79524 1.84951 1.90853 1.97284 2.04311 2.12008 2.20467 2.29794 2.40120 2.51599 2.64425 2.78831 2.95115 3.13651 3.34918 3.59547 3.88377 4.22554 4.63678 5.14066 5.77188 6.58503 6.88483 6.85875 6.83753 6.82110 6.80941 6.80241 6.80008 6.80241 6.80941 6.82110 6.83753 6.85875 6.88483 6.91588 6.95198 6.99329 7.03994 5.18018 4.75887 4.40375 4.10060 3.83898 3.61108 3.41095 3.27877 3.32404 3.37293 3.42566 3.48248 3.54369 3.60962 3.68061 3.75708 3.83949 9.15031 9.37448 9.61665 9.37450 9.15032 8.94261 8.74998 3.42909 3.36273 3.30112 3.24391 3.19080 3.14151 3.09582 3.05350 3.01435 2.97822 2.94493 2.98636 3.20593 3.46296 3.76765 4.13429 4.58353 5.14630 6.91587 6.88483 6.85874 6.83752 6.82109 6.80940 6.80240 0.000000 0.000000 0.000000 0.000000 0.000000 0.000000
FLASER 240 6.80007 6.80240 6.80940 6.82109 6.83752 6.85874 6.88482 6.91586 6.95197 6.99327 6.66497 6.07375 5.58239 5.16788 4.81376 4.50798 4.24146 4.00731 3.80014 3.61571 3.45062 3.30212 3.16797 3.04631 2.93560 2.83453 2.74201 2.65712 2.57904 2.50709 2.44069 2.37930 2.32249 2.26984 2.22102 2.17572 2.13367 2.09462 2.05836 2.02470 1.99347 1.96451 1.93769 1.91289 1.88999 1.86890 1.84952 1.83179 1.81562 1.80095 1.78774 1.77592 1.76546 1.75631 1.74845 1.74184 1.73647 1.73231 1.72935 1.72757 1.72698 1.72757 1.72935 1.73231 1.73647 1.74184 1.74845 1.75631 1.76546 1.77592 1.78774 1.80095 1.81562 1.83179 1.84952 1.86890 1.88999 1.91289 1.93769 1.96451 1.99347 2.02470 2.05836 2.09462 2.04309 1.97283 1.90851 1.84950 1.79523 1.74522 1.69907 1.65641 1.61692 1.58033 1.54641 1.51493 1.48571 1.45858 1.43339 1.41000 1.38830 1.36819 1.34956 1.33233 1.31642 1.30177 1.28831 1.27600 1.26477 1.25458 1.24540 1.23720 1.22993 1.22358 1.21812 1.21353 1.20980 1.20691 1.20485 1.20362 1.20321 1.20362 1.20486 1.20691 1.20980 1.21353 1.21812 1.22358 1.22993 1.23720 1.24541 1.25459 1.26477 1.27600 1.28832 1.30177 1.31643 1.33233 1.34956 1.36819 1.38831 1.41001 1.43339 1.45859 1.48572 1.51494 1.54642 1.58034 1.61693 1.65642 1.69908 1.74524 1.79524 1.84952 1.90853 1.97285 2.04311 2.12008 2.20467 2.29794 2.40120 2.51600 2.64425 2.78832 2.95115 3.13651 3.34918 3.59547 3.88378 4.22555 4.63679 5.14067 5.77189 6.38197 6.35332 6.32925 6.30967 6.29451 6.28372 6.27726 6.27511 6.27726 6.28372 6.29451 6.30967 6.32925 6.35332 6.38197 6.41529 6.45340 6.49645 6.54459 4.76159 4.40627 4.10294 3.84117 3.61314 3.41290 3.23580 3.07820 2.93717 2.81081 2.85742 2.90763 2.96170 3.01994 3.08266 3.15025 3.22314 3.30180 3.38677 3.47868 9.15033 8.94261 8.74999 8.57124 8.40529 8.25119 8.10810 7.97526 3.14151 3.09582 3.05349 3.01435 2.97822 2.94493 2.91435 2.88636 2.86085 2.83771 2.81685 2.79820 2.78168 2.99102 3.48401 4.17525 5.21346 6.82109 6.80940 6.80240 0.000000 0.000000 0.000000 0.000000 0.000000 0.000000
FLASER 240 6.80007 6.80240 6.80940 6.82109 6.83752 6.85874 6.88482 6.91586 6.95197 6.99327 7.03993 7.09210 7.14999 6.74050 6.27857 5.87969 5.53201 5.22656 4.95631 4.71570 4.50033 4.30660 4.13159 3.97287 3.82843 3.69657 3.57586 3.46510 3.36323 3.26936 3.18271 3.10261 3.02848 2.95978 2.89608 2.83697 2.78209 2.73113 2.68381 2.63989 2.59913 2.56134 2.52634 2.49397 2.46408 2.43656 2.41127 2.38812 2.36702 2.34788 2.33063 2.31521 2.30155 2.28962 2.27935 2.27073 2.26372 2.25829 2.25442 2.25210 2.25133 2.25210 2.25442 2.25829 2.26372 2.27073 2.27935 2.28962 2.30155 2.31521 2.33063 2.34788 2.36702 2.38812 2.41127 2.43656 2.46408 2.49397 2.52634 2.51597 2.40117 2.29792 2.20465 2.12006 2.04309 1.97283 1.90852 1.84950 1.79523 1.74522 1.69907 1.65641 1.61692 1.58034 1.54641 1.51493 1.48571 1.45858 1.43339 1.41000 1.38831 1.36819 1.34956 1.33233 1.31642 1.30177 1.28832 1.27600 1.26477 1.25458 1.24541 1.23720 1.22993 1.22358 1.21812 1.21353 1.20980 1.20691 1.20486 1.20363 1.20322 1.20363 1.20486 1.20691 1.20980 1.21354 1.21812 1.22358 1.22994 1.23720 1.24541 1.25459 1.26477 1.27600 1.28832 1.30178 1.31643 1.33233 1.34956 1.36819 1.38831 1.41001 1.43340 1.45859 1.48572 1.51494 1.54642 1.58035 1.61693 1.65642 1.69908 1.74524 1.79525 1.84952 1.90853 1.97285 2.04311 2.12009 2.20467 2.29795 2.40120 2.51600 2.64425 2.78832 2.95116 3.13652 3.34919 3.59548 3.88378 4.22555 4.63679 5.14068 5.77190 5.84807 5.82182 5.79977 5.78183 5.76794 5.75805 5.75213 5.75016 5.75213 5.75805 5.76794 5.78183 5.79977 5.82182 5.84807 5.87860 5.91353 5.95298 5.99709 6.04604 4.40879 4.10528 3.84337 3.61520 3.41485 3.23765 3.07995 2.93885 2.81196 2.69736 2.59346 2.49892 2.41264 2.40840 2.46118 2.51809 2.57951 2.64586 2.71763 2.79538 2.87975 2.97148 3.07142 8.40529 8.25119 8.10810 7.97527 7.85200 7.73772 7.63186 7.53396 7.44358 7.36032 2.91435 2.88636 2.86085 2.83770 2.81685 2.79819 2.78168 2.76725 2.75484 2.74441 2.73593 2.72936 2.72469 2.72189 0.000000 0.000000 0.000000 0.000000 0.000000 0.000000
FLASER 240 2.72095 2.72189 2.72468 2.72936 2.73593 2.74441 2.75484 2.76725 6.95197 6.99328 7.03993 7.09210 7.14999 7.21381 7.28382 7.25149 6.82266 6.44592 6.11258 5.81582 5.55018 5.31122 5.09536 4.89958 4.72141 4.55876 4.40987 4.27324 4.14758 4.03179 3.92491 3.82611 3.73466 3.64992 3.57134 3.49841 3.43072 3.36786 3.30948 3.25530 3.20501 3.15840 3.11522 3.07528 3.03841 3.00445 2.97326 2.94470 2.91867 2.89505 2.87378 2.85475 2.83790 2.82317 2.81051 2.79987 2.79122 2.78452 2.77975 2.77689 2.77594 2.77689 2.77975 2.78452 2.79122 2.79987 2.81051 2.82317 2.83790 2.85475 2.87378 2.89505 2.91867 2.94470 2.97326 3.00445 2.95112 2.78829 2.64422 2.51597 2.40118 2.29792 2.20465 2.12007 2.04310 1.97283 1.90852 1.84951 1.79523 1.74523 1.69907 1.65641 1.61692 1.58034 1.54641 1.51494 1.48571 1.45858 1.43339 1.41001 1.38831 1.36819 1.34956 1.33233 1.31643 1.30177 1.28832 1.27600 1.26477 1.25459 1.24541 1.23720 1.22994 1.22358 1.21812 1.21354 1.20980 1.20692 1.20486 1.20363 1.20322 1.20363 1.20486 1.20692 1.20981 1.21354 1.21813 1.22359 1.22994 1.23720 1.24541 1.25459 1.26477 1.27600 1.28832 1.30178 1.31643 1.33234 1.34957 1.36820 1.38831 1.41001 1.43340 1.45859 1.48572 1.51494 1.54642 1.58035 1.61693 1.65642 1.69909 1.74524 1.79525 1.84952 1.90854 1.97285 2.04312 2.12009 2.20468 2.29795 2.40121 2.51601 2.64426 2.78833 2.95116 3.13652 3.34919 3.59548 3.88379 4.22556 4.63680 5.14068 5.34193 5.31419 5.29034 5.27030 5.25399 5.24137 5.23239 5.22701 5.22522 5.22701 5.23239 5.24137 5.25399 5.27030 5.29034 5.31419 5.34193 5.37367 5.40951 5.44960 5.49408 5.54311 4.10763 3.84556 3.61726 3.41679 3.23949 3.08171 2.94052 2.81356 2.69890 2.59493 2.50034 2.41401 2.33500 2.26251 2.19585 2.13443 2.07775 2.02536 2.01283 2.07351 2.13949 2.21139 2.28992 2.37593 2.47043 2.57461 2.68990 2.81805 7.63187 7.53396 7.44358 7.36032 7.28384 7.21383 7.15000 7.09211 7.03994 6.99329 6.95198 2.76725 2.75484 2.74441 2.73593 2.72936 2.72468 2.72189 0.000000 0.000000 0.000000 0.000000 0.000000 0.000000
FLASER 240 2.72095 2.72188 2.72468 2.72936 2.73593 2.74441 2.75484 2.76725 2.78168 2.79820 2.81685 2.83771 2.86085 2.88637 7.28382 7.36030 7.44356 7.53394 7.26892 6.91600 6.60008 6.31591 6.05919 5.82636 5.61447 5.42104 5.24397 5.08148 4.93203 4.79432 4.66721 4.54970 4.44094 4.34016 4.24670 4.15997 4.07945 4.00469 3.93527 3.87082 3.81101 3.75557 3.70421 3.65671 3.61286 3.57247 3.53537 3.50140 3.47044 3.44236 3.41705 3.39441 3.37437 3.35686 3.34180 3.32914 3.31885 3.31088 3.30521 3.30181 3.30068 3.30181 3.30521 3.31088 3.31885 3.32914 3.34180 3.35686 3.37437 3.39441 3.41705 3.44236 3.47044 3.50140 3.34913 3.13647 2.95112 2.78829 2.64422 2.51598 2.40118 2.29793 2.20466 2.12007 2.04310 1.97284 1.90852 1.84951 1.79524 1.74523 1.69908 1.65641 1.61693 1.58034 1.54642 1.51494 1.48572 1.45859 1.43339 1.41001 1.38831 1.36819 1.34956 1.33233 1.31643 1.30178 1.28832 1.27600 1.26477 1.25459 1.24541 1.23720 1.22994 1.22359 1.21813 1.21354 1.20981 1.20692 1.20486 1.20363 1.20322 1.20363 1.20486 1.20692 1.20981 1.21354 1.21813 1.22359 1.22994 1.23721 1.24541 1.25459 1.26478 1.27601 1.28832 1.30178 1.31643 1.33234 1.34957 1.36820 1.38832 1.41001 1.43340 1.45859 1.48572 1.51495 1.54643 1.58035 1.61694 1.65642 1.69909 1.74524 1.79525 1.84952 1.90854 1.97286 2.04312 2.12009 2.20468 2.29796 2.40121 2.51601 2.64426 2.78833 2.95117 3.13653 3.34920 3.59549 3.88380 4.22557 4.63681 4.83383 4.80528 4.78033 4.75887 4.74085 4.72618 4.71483 4.70675 4.70191 4.70030 4.70191 4.70675 4.71483 4.72618 4.74085 4.75887 4.78033 4.80528 4.83383 4.86607 4.90212 4.94213 4.98624 5.03463 5.08748 3.61932 3.41874 3.24134 3.08347 2.94220 2.81516 2.70044 2.59641 2.50177 2.41539 2.33633 2.26380 2.19710 2.13565 2.07893 2.02651 1.97799 1.93304 1.89136 1.85269 1.81679 1.78345 1.75250 1.72376 1.69710 1.72208 1.80938 1.90742 2.01819 2.14423 2.28879 2.45610 2.65184 7.09212 7.03995 6.99329 6.95199 6.91588 6.88483 6.85875 6.83753 6.82110 6.80941 6.80240 0.000000 0.000000 0.000000 0.000000 0.000000 0.000000
FLASER 240 6.80007 6.80240 6.80940 6.82110 4.73551 3.79260 3.16481 2.76725 2.78168 2.79819 2.81685 2.83770 2.86085 2.88636 2.91435 2.94493 2.97822 3.01435 3.05350 3.09582 7.65003 7.32064 7.02307 6.75318 6.50757 6.28336 6.07811 5.88976 5.71653 5.55690 5.40956 5.27335 5.14727 5.03045 4.92212 4.82158 4.72825 4.64159 4.56111 4.48641 4.41708 4.35281 4.29328 4.23822 4.18739 4.14056 4.09755 4.05818 4.02229 3.98973 3.96039 3.93416 3.91093 3.89062 3.87316 3.85849 3.84656 3.83732 3.83075 3.82681 3.82550 3.82681 3.83075 3.83732 3.84656 3.85849 3.87316 3.89062 3.91093 3.93416 3.96039 3.98973 3.88372 3.59542 3.34914 3.13648 2.95112 2.78829 2.64423 2.51598 2.40119 2.29793 2.20466 2.12007 2.04310 1.97284 1.90853 1.84951 1.79524 1.74523 1.69908 1.65642 1.61693 1.58034 1.54642 1.51494 1.48572 1.45859 1.43340 1.41001 1.38831 1.36820 1.34957 1.33234 1.31643 1.30178 1.28832 1.27600 1.26477 1.25459 1.24541 1.23721 1.22994 1.22359 1.21813 1.21354 1.20981 1.20692 1.20486 1.20363 1.20322 1.20363 1.20486 1.20692 1.20981 1.21354 1.21813 1.22359 1.22994 1.23721 1.24541 1.25459 1.26478 1.27601 1.28833 1.30178 1.31643 1.33234 1.34957 1.36820 1.38832 1.41002 1.43340 1.45859 1.48573 1.51495 1.54643 1.58035 1.61694 1.65643 1.69909 1.74525 1.79525 1.84953 1.90854 1.97286 2.04312 2.12010 2.20468 2.29796 2.40122 2.51601 2.64427 2.78834 2.95117 3.13653 3.34920 3.59550 3.88380 4.22557 4.32265 4.29401 4.26866 4.24649 4.22744 4.21142 4.19840 4.18831 4.18113 4.17684 4.17541 4.17684 4.18113 4.18831 4.19840 4.21142 4.22744 4.24649 4.26866 4.29401 4.32265 4.35468 4.39021 4.42939 4.47237 4.51932 4.57043 4.62591 4.68601 3.08522 2.94387 2.81677 2.70198 2.59789 2.50319 2.41676 2.33766 2.26509 2.19835 2.13686 2.08012 2.02766 1.97912 1.93414 1.89244 1.85374 1.81782 1.78446 1.75349 1.72474 1.69806 1.67333 1.65042 1.62923 1.60966 1.59163 1.57508 1.55991 1.54609 1.53354 1.52223 1.51212 1.50315 1.62436 1.88877 2.25835 6.83753 6.82110 6.80941 6.80241 0.000000 0.000000 0.000000 0.000000 0.000000 0.000000
FLASER 240 1.47077 1.47121 1.47266 1.47511 1.47859 1.48310 6.88483 6.91587 4.90601 4.36955 3.94131 3.59182 3.30136 3.05635 2.91435 2.94493 2.97822 3.01435 3.05349 3.09582 3.14151 3.19080 3.24391 3.30112 3.36274 7.14571 6.91229 6.69808 6.50107 6.31952 6.15195 5.99704 5.85365 5.72079 5.59758 5.48324 5.37709 5.27853 5.18700 5.10204 5.02319 4.95009 4.88239 4.81977 4.76196 4.70870 4.65979 4.61501 4.57418 4.53716 4.50379 4.47395 4.44753 4.42443 4.40458 4.38789 4.37432 4.36381 4.35634 4.35186 4.35037 4.35186 4.35634 4.36381 4.37432 4.38789 4.40458 4.42443 4.44753 4.47395 4.50379 4.22548 3.88372 3.59543 3.34914 3.13648 2.95113 2.78830 2.64423 2.51598 2.40119 2.29794 2.20466 2.12008 2.04310 1.97284 1.90853 1.84951 1.79524 1.74524 1.69908 1.65642 1.61693 1.58035 1.54642 1.51494 1.48572 1.45859 1.43340 1.41001 1.38831 1.36820 1.34957 1.33234 1.31643 1.30178 1.28832 1.27601 1.26478 1.25459 1.24541 1.23721 1.22994 1.22359 1.21813 1.21354 1.20981 1.20692 1.20486 1.20363 1.20322 1.20363 1.20486 1.20692 1.20981 1.21354 1.21813 1.22359 1.22994 1.23721 1.24542 1.25459 1.26478 1.27601 1.28833 1.30178 1.31644 1.33234 1.34957 1.36820 1.38832 1.41002 1.43340 1.45860 1.48573 1.51495 1.54643 1.58036 1.61694 1.65643 1.69909 1.74525 1.79526 1.84953 1.90855 1.97286 2.04313 2.12010 2.20469 2.29796 2.40122 2.51602 2.64427 2.78834 2.95118 3.13654 3.34921 3.59550 3.83833 3.80727 3.77927 3.75423 3.73207 3.71269 3.69604 3.68204 3.67065 3.66184 3.65556 3.65180 3.65055 3.65180 3.65556 3.66184 3.67065 3.68204 3.69604 3.71269 3.73207 3.75423 3.77927 3.80727 3.83833 3.87258 3.91015 3.95119 3.99587 4.04438 4.09692 4.15372 4.21505 4.28120 2.70351 2.59937 2.50462 2.41814 2.33899 2.26637 2.19960 2.13808 2.08130 2.02882 1.98024 1.93524 1.89351 1.85480 1.81885 1.78548 1.75449 1.72572 1.69903 1.67428 1.65135 1.63015 1.61057 1.59254 1.57597 1.56080 1.54697 1.53441 1.52310 1.51297 1.50401 1.49616 1.48940 1.48372 1.47908 1.47548 1.47290 1.47133 0.000000 0.000000 0.000000 0.000000 0.000000 0.000000
FLASER 240 1.47160 1.47204 1.47349 1.47595 1.47943 1.48394 1.48950 1.49613 1.50384 1.51268 1.52267 1.53384 1.54625 1.55993 1.57494 1.59135 1.60921 1.62861 1.64962 3.23856 3.14151 3.19079 3.24391 3.30112 3.36273 3.42909 3.50056 3.57759 3.66065 3.75029 6.89436 6.72075 6.56005 6.41115 6.27306 6.14492 6.02596 5.91550 5.81292 5.71770 5.62934 5.54741 5.47153 5.40135 5.33656 5.27687 5.22205 5.17186 5.12611 5.08461 5.04721 5.01377 4.98416 4.95828 4.93603 4.91733 4.90212 4.89034 4.88196 4.87694 4.87527 4.87694 4.88196 4.89034 4.90212 4.91733 4.93603 4.95828 4.98416 5.01377 4.63670 4.22548 3.88373 3.59543 3.34915 3.13649 2.95113 2.78830 2.64424 2.51599 2.40119 2.29794 2.20467 2.12008 2.04311 1.97285 1.90853 1.84952 1.79525 1.74524 1.69908 1.65642 1.61693 1.58035 1.54642 1.51495 1.48572 1.45859 1.43340 1.41001 1.38832 1.36820 1.34957 1.33234 1.31643 1.30178 1.28833 1.27601 1.26478 1.25459 1.24542 1.23721 1.22994 1.22359 1.21813 1.21354 1.20981 1.20692 1.20487 1.20364 1.20323 1.20364 1.20487 1.20692 1.20981 1.21355 1.21813 1.22359 1.22995 1.23721 1.24542 1.25460 1.26478 1.27601 1.28833 1.30179 1.31644 1.33234 1.34957 1.36821 1.38832 1.41002 1.43341 1.45860 1.48573 1.51495 1.54643 1.58036 1.61694 1.65643 1.69910 1.74525 1.79526 1.84953 1.90855 1.97286 2.04313 2.12010 2.20469 2.29797 2.40122 2.51602 2.64428 2.78835 2.95118 3.13654 3.34799 3.31583 3.28651 3.25991 3.23594 3.21451 3.19554 3.17895 3.16469 3.15271 3.14296 3.13541 3.13004 3.12683 3.12576 3.12683 3.13004 3.13541 3.14296 3.15271 3.16469 3.17895 3.19554 3.21451 3.23594 3.25991 3.28651 3.31583 3.34799 3.38312 3.42137 3.46289 3.50787 3.55650 3.60901 3.66563 3.72666 3.79240 3.86320 3.93944 4.02157 2.26766 2.20085 2.13929 2.08248 2.02997 1.98137 1.93634 1.89459 1.85585 1.81989 1.78649 1.75549 1.72670 1.69999 1.67523 1.65229 1.63108 1.61149 1.59344 1.57686 1.56168 1.54784 1.53529 1.52396 1.51383 1.50486 1.49701 1.49025 1.48456 1.47992 1.47632 1.47374 1.47217 0.000000 0.000000 0.000000 0.000000 0.000000 0.000000
FLASER 240 1.47244 1.47288 1.47433 1.47679 1.48027 1.48478 1.49034 1.49698 1.50470 1.51354 1.52353 1.53471 1.54712 1.56082 1.57584 1.59225 1.61012 1.62953 1.65056 1.67329 1.69784 1.72432 1.75286 1.78361 1.81672 1.85238 1.89079 1.93219 3.66064 3.75028 3.84712 3.95188 4.06538 7.10153 6.94857 6.80663 6.67485 6.55248 6.43886 6.33338 6.23550 6.14475 6.06069 5.98295 5.91118 5.84506 5.78434 5.72874 5.67806 5.63209 5.59067 5.55362 5.52082 5.49215 5.46750 5.44679 5.42994 5.41689 5.40761 5.40205 5.40020 5.40205 5.40761 5.41689 5.42994 5.44679 5.46750 5.49215 5.52082 5.14057 4.63671 4.22549 3.88373 3.59544 3.34915 3.13649 2.95114 2.78831 2.64424 2.51599 2.40120 2.29794 2.20467 2.12008 2.04311 1.97285 1.90854 1.84952 1.79525 1.74524 1.69909 1.65642 1.61694 1.58035 1.54643 1.51495 1.48573 1.45859 1.43340 1.41002 1.38832 1.36820 1.34957 1.33234 1.31644 1.30178 1.28833 1.27601 1.26478 1.25460 1.24542 1.23721 1.22995 1.22359 1.21813 1.21355 1.20981 1.20693 1.20487 1.20364 1.20323 1.20364 1.20487 1.20693 1.20982 1.21355 1.21814 1.22360 1.22995 1.23721 1.24542 1.25460 1.26478 1.27601 1.28833 1.30179 1.31644 1.33235 1.34958 1.36821 1.38832 1.41002 1.43341 1.45860 1.48573 1.51496 1.54644 1.58036 1.61695 1.65644 1.69910 1.74525 1.79526 1.84954 1.90855 1.97287 2.04313 2.12011 2.20470 2.29797 2.40123 2.51603 2.64428 2.78835 2.84695 2.81514 2.78591 2.75916 2.73477 2.71265 2.69271 2.67488 2.65910 2.64530 2.63344 2.62347 2.61536 2.60909 2.60462 2.60194 2.60105 2.60194 2.60462 2.60909 2.61536 2.62347 2.63344 2.64530 2.65910 2.67488 2.69271 2.71265 2.73477 2.75916 2.78591 2.81514 2.84695 2.88149 2.91891 2.95936 3.00304 3.05014 3.10091 3.15560 3.21449 3.27792 3.34624 3.41986 3.49925 3.58493 3.67750 3.77763 3.88612 1.93744 1.89567 1.85690 1.82092 1.78751 1.75648 1.72768 1.70096 1.67618 1.65323 1.63200 1.61240 1.59435 1.57776 1.56257 1.54872 1.53616 1.52483 1.51469 1.50571 1.49786 1.49109 1.48540 1.48076 1.47716 1.47457 1.47300 0.000000 0.000000 0.000000 0.000000 0.000000 0.000000
FLASER 240 1.47327 1.47371 1.47516 1.47762 1.48111 1.48562 1.49119 1.49782 1.50555 1.51440 1.52439 1.53558 1.54800 1.56170 1.57673 1.59315 1.61104 1.63046 1.65149 1.67424 1.69880 1.72530 1.75386 1.78462 1.81775 1.85343 1.89187 1.93329 1.97795 2.02615 2.07823 2.13456 2.19558 2.26180 4.32247 4.46840 7.32375 7.18949 7.06481 6.94907 6.84167 6.74210 6.64987 6.56457 6.48582 6.41327 6.34664 6.28564 6.23003 6.17959 6.13413 6.09349 6.05750 6.02604 5.99899 5.97626 5.95777 5.94346 5.93327 5.92717 5.92514 5.92717 5.93327 5.94346 5.95777 5.97626 5.99899 6.02604 5.77176 5.14058 4.63672 4.22550 3.88374 3.59544 3.34916 3.13650 2.95114 2.78831 2.64425 2.51600 2.40120 2.29795 2.20467 2.12009 2.04311 1.97285 1.90854 1.84952 1.79525 1.74524 1.69909 1.65643 1.61694 1.58035 1.54643 1.51495 1.48573 1.45860 1.43340 1.41002 1.38832 1.36820 1.34957 1.33234 1.31644 1.30179 1.28833 1.27601 1.26478 1.25460 1.24542 1.23721 1.22995 1.22360 1.21814 1.21355 1.20982 1.20693 1.20487 1.20364 1.20323 1.20364 1.20487 1.20693 1.20982 1.21355 1.21814 1.22360 1.22995 1.23722 1.24542 1.25460 1.26479 1.27602 1.28833 1.30179 1.31644 1.33235 1.34958 1.36821 1.38833 1.41003 1.43341 1.45860 1.48574 1.51496 1.54644 1.58036 1.61695 1.65644 1.69910 1.74526 1.79527 1.84954 1.90856 1.97287 2.04313 2.12011 2.20470 2.29797 2.39721 2.36236 2.33009 2.30024 2.27269 2.24730 2.22399 2.20264 2.18318 2.16554 2.14963 2.13541 2.12282 2.11181 2.10235 2.09440 2.08793 2.08292 2.07936 2.07722 2.07651 2.07722 2.07936 2.08292 2.08793 2.09440 2.10235 2.11181 2.12282 2.13541 2.14963 2.16554 2.18318 2.20264 2.22399 2.24730 2.27269 2.30024 2.33009 2.36236 2.39721 2.43479 2.47530 2.51893 2.56592 2.61652 2.67103 2.72977 2.79312 2.86148 2.93534 3.01524 3.10181 3.19574 3.29789 3.40920 3.53079 3.66400 3.81037 3.97176 4.15041 4.34902 1.65417 1.63293 1.61332 1.59525 1.57865 1.56346 1.54960 1.53703 1.52569 1.51555 1.50657 1.49870 1.49194 1.48624 1.48160 1.47799 1.47541 1.47384 0.000000 0.000000 0.000000 0.000000 0.000000 0.000000
FLASER 240 1.47411 1.47455 1.47600 1.47846 1.48195 1.48647 1.49203 1.49867 1.50640 1.51525 1.52526 1.53645 1.54888 1.56258 1.57762 1.59406 1.61195 1.63138 1.65243 1.67519 1.69977 1.72628 1.75485 1.78563 1.81878 1.85448 1.89294 1.93438 1.97907 2.02730 2.07941 2.13577 2.19683 2.26309 2.33512 2.41361 2.49935 2.59325 2.69642 7.56478 7.44786 7.33946 7.23906 7.14620 7.06047 6.98149 6.90895 6.84255 6.78201 6.72710 6.67761 6.63336 6.59418 6.55994 6.53049 6.50575 6.48562 6.47004 6.45895 6.45231 6.45010 6.45231 6.45895 6.47004 6.48562 6.50575 6.53049 6.55994 5.77177 5.14059 4.63673 4.22550 3.88375 3.59545 3.34916 3.13650 2.95115 2.78832 2.64425 2.51600 2.40120 2.29795 2.20468 2.12009 2.04312 1.97286 1.90854 1.84953 1.79525 1.74525 1.69909 1.65643 1.61694 1.58036 1.54643 1.51495 1.48573 1.45860 1.43341 1.41002 1.38832 1.36821 1.34958 1.33235 1.31644 1.30179 1.28833 1.27601 1.26478 1.25460 1.24542 1.23722 1.22995 1.22360 1.21814 1.21355 1.20982 1.20693 1.20487 1.20364 1.20323 1.20364 1.20487 1.20693 1.20982 1.21355 1.21814 1.22360 1.22995 1.23722 1.24542 1.25460 1.26479 1.27602 1.28834 1.30179 1.31644 1.33235 1.34958 1.36821 1.38833 1.41003 1.43341 1.45861 1.48574 1.51496 1.54644 1.58037 1.61695 1.65644 1.69910 1.74526 1.79527 1.84954 1.90856 1.95539 1.91761 1.88253 1.84996 1.81972 1.79167 1.76566 1.74157 1.71929 1.69872 1.67977 1.66237 1.64644 1.63191 1.61874 1.60687 1.59626 1.58686 1.57865 1.57158 1.56565 1.56082 1.55708 1.55442 1.55283 1.55230 1.55283 1.55442 1.55708 1.56082 1.56565 1.57158 1.57865 1.58686 1.59626 1.60687 1.61874 1.63191 1.64644 1.66237 1.67977 1.69872 1.71929 1.74157 1.76566 1.79167 1.81972 1.84996 1.88253 1.91761 1.95539 1.99608 2.03994 2.08723 2.13827 2.19342 2.25308 2.31771 2.38786 2.46413 2.54724 2.63805 2.73752 2.84682 2.96735 3.10077 3.24909 3.41480 3.60094 3.81132 4.05079 4.32553 4.64371 5.01615 5.45765 5.98888 6.63976 6.95200 6.91589 6.88485 1.48709 1.48244 1.47883 1.47624 1.47467 0.000000 0.000000 0.000000 0.000000 0.000000 0.000000
FLASER 240 6.80009 6.80242 6.80942 6.82111 6.83754 2.26421 1.88597 1.61724 1.50725 1.51611 1.52612 1.53732 1.54976 1.56347 1.57852 1.59496 1.61286 1.63230 1.65336 1.67614 1.70073 1.72726 1.75585 1.78664 1.81981 1.85553 1.89401 1.93548 1.98020 2.02845 2.08059 2.13698 2.19808 2.26437 2.33645 2.41498 2.50077 2.59472 2.69795 2.81175 2.93769 3.07767 7.82826 7.72783 7.63513 7.54972 7.47128 7.39947 7.33400 7.27462 7.22110 7.17325 7.13088 7.09385 7.06200 7.03525 7.01348 6.99663 6.98464 6.97746 6.97507 6.97746 6.98464 6.99663 7.01348 7.03525 7.06200 6.58489 5.77178 5.14059 4.63673 4.22551 3.88375 3.59546 3.34917 3.13651 2.95115 2.78832 2.64425 2.51600 2.40121 2.29795 2.20468 2.12009 2.04312 1.97286 1.90854 1.84953 1.79526 1.74525 1.69910 1.65643 1.61694 1.58036 1.54643 1.51496 1.48573 1.45860 1.43341 1.41002 1.38833 1.36821 1.34958 1.33235 1.31644 1.30179 1.28833 1.27602 1.26479 1.25460 1.24542 1.23722 1.22995 1.22360 1.21814 1.21355 1.20982 1.20693 1.20487 1.20364 1.20323 1.20364 1.20487 1.20693 1.20982 1.21355 1.21814 1.22360 1.22995 1.23722 1.24543 1.25460 1.26479 1.27602 1.28834 1.30179 1.31645 1.33235 1.34958 1.36821 1.38833 1.41003 1.43342 1.45861 1.48574 1.51496 1.54644 1.58037 1.53418 1.49149 1.45209 1.41567 1.38197 1.35074 1.32178 1.29492 1.26998 1.24682 1.22532 1.20536 1.18685 1.16968 1.15378 1.13908 1.12551 1.11301 1.10153 1.09102 1.08144 1.07275 1.06492 1.05791 1.05172 1.04630 1.04164 1.03773 1.03454 1.03208 1.03032 1.02927 1.02892 1.02927 1.03032 1.03208 1.03454 1.03773 1.04164 1.04630 1.05172 1.05791 1.06492 1.07275 1.08144 1.09102 1.10153 1.11301 1.12551 1.13908 1.15378 1.16968 1.18685 1.20536 1.22532 1.24682 1.26998 1.29492 1.32178 1.35074 1.38197 1.41567 1.45209 1.49149 1.53418 1.58051 1.63089 1.68580 1.74579 1.81151 1.88373 1.96337 2.05154 2.14957 2.25908 2.38211 2.52116 2.67946 2.86108 3.07142 3.31764 3.60953 3.96076 4.39111 4.93023 5.62474 6.55237 6.85876 6.83754 6.82111 6.80942 6.80242 0.000000 0.000000 0.000000 0.000000 0.000000 0.000000
FLASER 240 6.80009 6.80242 6.80942 6.82111 6.83754 6.85876 6.88484 6.91588 6.95199 6.99329 7.03995 7.09212 2.65723 2.45911 2.29000 2.14406 2.01695 1.90534 1.80664 1.71882 1.70169 1.72823 1.75684 1.78766 1.82084 1.85659 1.89509 1.93658 1.98132 2.02960 2.08177 2.13819 2.19932 2.26565 2.33777 2.41635 2.50218 2.59619 2.69948 2.81334 2.93936 3.07942 3.23584 3.41148 3.60992 8.11796 8.03361 7.95639 7.88600 7.82215 7.76460 7.71315 7.66759 7.62776 7.59353 7.56476 7.54135 7.52323 7.51033 7.50261 7.50004 7.50261 7.51033 7.52323 7.54135 7.56476 7.59353 6.58490 7.66759 5.14060 4.63674 4.22552 3.88376 3.59546 3.34918 3.13651 2.95116 2.78833 2.64426 2.51601 2.40121 2.29796 2.20468 2.12010 2.04312 1.97286 1.90855 1.84953 1.79526 1.74525 1.69910 1.65643 1.61695 1.58036 1.54644 1.51496 1.48574 1.45860 1.43341 1.41003 1.38833 1.36821 1.34958 1.33235 1.31644 1.30179 1.28834 1.27602 1.26479 1.25460 1.24543 1.23722 1.22995 1.22360 1.21814 1.21355 1.20982 1.20693 1.20488 1.20364 1.20323 1.20364 1.20488 1.20693 1.20982 1.21356 1.21814 1.22360 1.22996 1.23722 1.24543 1.25461 1.26479 1.27602 1.28834 1.30180 1.23242 1.16477 1.10493 1.05169 1.00404 0.96120 0.92252 0.88745 0.85556 0.82645 0.79982 0.77540 0.75294 0.73226 0.71319 0.69556 0.67925 0.66415 0.65015 0.63716 0.62511 0.61393 0.60355 0.59392 0.58499 0.57671 0.56905 0.56196 0.55542 0.54940 0.54387 0.53881 0.53420 0.53002 0.52625 0.52288 0.51990 0.51730 0.51506 0.51318 0.51165 0.51046 0.50962 0.50911 0.50894 0.50911 0.50962 0.51046 0.51165 0.51318 0.51506 0.51730 0.51990 0.52288 0.52625 0.53002 0.53420 0.53881 0.54387 0.54940 0.55542 0.56196 0.56905 0.57671 0.58499 0.59392 0.60355 0.61393 0.62511 0.63716 0.65015 0.66415 0.67925 0.69556 0.71319 0.73227 0.75294 0.77540 0.79982 0.82645 0.85556 0.88745 0.92252 0.96120 1.00404 1.05169 1.10493 1.16477 1.23242 1.30945 1.39786 1.50028 1.62020 1.76240 1.93354 2.14327 2.40606 2.74465 3.19696 6.85876 4.78369 6.37285 6.80942 6.80242 0.000000 0.000000 0.000000 0.000000 0.000000 0.000000
FLASER 240 6.80009 6.80242 6.80942 6.82111 6.83754 6.85876 6.88484 6.91588 6.95199 6.99329 7.03995 7.09212 2.65723 2.45911 2.29000 2.14406 2.01695 1.90534 1.80664 1.71882 1.70169 1.72823 1.75684 1.78766 1.82084 1.85659 1.89509 1.93658 1.98132 2.02960 2.08177 2.13819 2.19932 2.26565 2.33777 2.41635 2.50218 2.59619 2.69948 2.81334 2.93936 3.07942 3.23584 3.41148 3.60992 8.11796 8.03361 7.95639 7.88600 7.82215 7.76460 7.71315 7.66759 7.62776 7.59353 7.56476 7.54135 7.52323 7.51033 7.50261 7.50004 7.50261 7.51033 7.52323 7.54135 7.56476 7.59353 6.58490 7.66759 5.14060 4.63674 4.22552 3.88376 3.59546 3.34918 3.13651 2.95116 2.78833 2.64426 2.51601 2.40121 2.29796 2.20468 2.12010 2.04312 1.97286 1.90855 1.84953 1.79526 1.74525 1.69910 1.65643 1.61695 1.58036 1.54644 1.51496 1.48574 1.45860 1.43341 1.41003 1.38833 1.36821 1.34958 1.33235 1.31644 1.30179 1.28834 1.27602 1.26479 1.25460 1.24543 1.23722 1.22995 1.22360 1.21814 1.21355 1.20982 1.20693 1.20488 1.20364 1.20323 1.20364 1.20488 1.20693 1.20982 1.21356 1.21814 1.22360 1.22996 1.23722 1.24543 1.25461 1.26479 1.27602 1.28834 1.30180 1.23242 1.16477 1.10493 1.05169 1.00404 0.96120 0.92252 0.88745 0.85556 0.82645 0.79982 0.77540 0.75294 0.73226 0.71319 0.69556 0.67925 0.66415 0.65015 0.63716 0.62511 0.61393 0.60355 0.59392 0.58499 0.57671 0.56905 0.56196 0.55542 0.54940 0.54387 0.53881 0.53420 0.53002 0.52625 0.52288 0.51990 0.51730 0.51506 0.51318 0.51165 0.51046 0.50962 0.50911 0.50894 0.50911 0.50962 0.51046 0.51165 0.51318 0.51506 0.51730 0.51990 0.52288 0.52625 0.53002 0.53420 0.53881 0.54387 0.54940 0.55542 0.56196 0.56905 0.57671 0.58499 0.59392 0.60355 0.61393 0.62511 0.63716 0.65015 0.66415 0.67925 0.69556 0.71319 0.73227 0.75294 0.77540 0.79982 0.82645 0.85556 0.88745 0.92252 0.96120 1.00404 1.05169 1.10493 1.16477 1.23242 1.30945 1.39786 1.50028 1.62020 1.76240 1.93354 2.14327 2.40606 2.74465 3.19696 6.85876 4.78369 6.37285 6.80942 6.80242 0.000000 0.000000 0.000000 0.000000 0.000000 0.000000
FLASER 240 6.31679 6.31895 6.32545 6.33632 6.35158 6.37129 6.39551 6.42435 6.45789 6.49626 6.53959 6.58805 6.64183 6.70111 6.76615 2.14608 2.01885 1.90713 1.80834 1.72043 1.64178 1.57106 1.50720 1.44930 1.39663 1.34857 1.30458 1.30304 1.33306 1.36545 1.40045 1.43832 1.47934 1.52386 1.57226 1.62501 1.68262 1.74573 1.81507 1.89152 1.97613 2.07018 2.17522 2.29318 2.42645 2.57809 2.75200 2.95327 3.18873 3.46762 7.76460 7.71315 7.66759 7.62776 7.59353 7.56476 7.54135 7.52323 7.51033 7.50261 7.50004 7.50261 7.51033 7.52323 7.54135 7.56476 7.59353 7.62776 7.66759 7.21083 6.50396 5.92703 5.44755 5.04306 4.69751 4.39912 4.13904 3.91055 3.70839 3.52842 3.36732 3.22241 3.09151 2.97279 2.86475 2.76613 2.67586 2.59301 2.51682 2.44662 2.38182 2.32192 2.26648 2.21511 2.16747 2.12327 2.08223 2.04413 2.00875 1.97590 1.94543 1.91717 1.89100 1.86680 1.84445 1.82387 1.80497 1.78766 1.77188 1.75758 1.74468 1.73315 1.72294 1.71402 1.70635 1.69990 1.69465 1.69059 1.68770 1.68597 1.68540 1.68598 1.68771 1.69060 1.69466 1.69990 1.70635 1.71402 1.72294 1.73315 1.74468 1.75758 1.62020 1.50028 1.39786 1.30945 1.23242 1.16477 1.10493 1.05169 1.00404 0.96120 0.92252 0.88745 0.85556 0.82645 0.79982 0.77540 0.75294 0.73227 0.71319 0.69556 0.67925 0.66415 0.65015 0.63716 0.62511 0.61393 0.60355 0.59392 0.58499 0.57671 0.56905 0.56196 0.55542 0.54940 0.54387 0.53881 0.53420 0.53002 0.52625 0.52288 0.51990 0.51730 0.51506 0.51318 0.51165 0.51046 0.50962 0.50911 0.50894 0.50911 0.50962 0.51046 0.51165 0.51318 0.51506 0.51730 0.51990 0.52288 0.52625 0.53002 0.53420 0.53881 0.54387 0.54940 0.55542 0.56196 0.56905 0.57671 0.58499 0.59392 0.60355 0.61393 0.62511 0.63716 0.65015 0.66415 0.67925 0.69556 0.71319 0.73227 0.75294 0.77540 0.79982 0.82645 0.85556 0.88745 0.92252 0.96120 1.00404 1.05169 1.10493 1.16477 1.23242 1.30945 1.39786 1.50028 1.62020 1.76240 1.93354 2.14327 2.40606 2.74465 3.19696 3.83115 4.78369 6.33632 6.32546 6.31895 0.000000 0.000000 0.000000 0.000000 0.000000 0.000000
FLASER 240 5.83349 5.83549 5.84150 5.85153 5.86562 5.88382 5.90620 5.93283 5.96380 5.99923 6.03925 6.08400 6.13366 6.18841 6.24846 6.31406 6.38549 6.46302 6.54700 1.72205 1.64332 1.57253 1.50861 1.45066 1.39794 1.34983 1.30581 1.26542 1.22828 1.19408 1.16251 1.13334 1.10634 1.08133 1.05815 1.03663 1.01667 0.99813 0.98092 0.97135 1.01449 1.06245 1.11604 1.17624 1.24427 1.32170 1.41053 1.51336 1.63368 1.77622 1.94762 2.15741 2.41988 2.75741 3.20717 7.56476 7.54135 7.52323 7.51033 7.50261 7.50004 7.50261 7.51033 7.52323 7.54135 7.56476 7.59353 7.62776 7.66759 7.71315 7.76460 7.62869 7.01150 6.49084 6.04603 5.66193 5.32714 5.03301 4.77277 4.54109 4.33370 4.14715 3.97863 3.82579 3.68670 3.55973 3.44350 3.33684 3.23874 3.14835 3.06492 2.98780 2.91641 2.85026 2.78892 2.73200 2.67916 2.63009 2.58453 2.54223 2.50298 2.46660 2.43289 2.40172 2.37295 2.34644 2.32209 2.29981 2.27949 2.26106 2.24445 2.22960 2.21645 2.20496 2.19507 2.18677 2.18002 2.17479 2.17106 2.16884 2.16809 2.16884 2.17107 2.17479 2.18002 2.18677 2.19508 2.20496 2.21645 2.14327 1.93354 1.76240 1.62020 1.50028 1.39786 1.30945 1.23242 1.16477 1.10493 1.05169 1.00404 0.96120 0.92252 0.88745 0.85556 0.82645 0.79982 0.77540 0.75294 0.73227 0.71319 0.69556 0.67925 0.66415 0.65015 0.63716 0.62511 0.61393 0.60355 0.59392 0.58499 0.57671 0.56905 0.56196 0.55542 0.54940 0.54387 0.53881 0.53420 0.53002 0.52625 0.52288 0.51990 0.51730 0.51506 0.51318 0.51165 0.51046 0.50962 0.50911 0.50894 0.50911 0.50962 0.51046 0.51165 0.51318 0.51506 0.51730 0.51990 0.52288 0.52625 0.53002 0.53420 0.53881 0.54387 0.54940 0.55542 0.56196 0.56905 0.57671 0.58499 0.59392 0.60355 0.61393 0.62511 0.63716 0.65015 0.66415 0.67925 0.69556 0.71319 0.73227 0.75294 0.77540 0.79982 0.82645 0.85556 0.88745 0.92252 0.96120 1.00404 1.05169 1.10493 1.16477 1.23242 1.30945 1.39786 1.50028 1.62020 1.76240 1.93354 2.14327 2.40606 2.74465 3.19696 3.83115 4.78369 5.85153 5.84150 5.83549 0.000000 0.000000 0.000000 0.000000 0.000000 0.000000
FLASER 240 5.35021 5.35205 5.35756 5.36676 5.37968 5.39637 5.41689 5.44131 5.46972 5.50221 5.53891 5.57996 5.62550 5.67571 5.73079 5.79096 5.85646 5.92756 6.00458 6.08786 6.17777 6.27474 6.37924 6.49182 6.61305 1.35109 1.30703 1.26660 1.22943 1.19519 1.16360 1.13440 1.10737 1.08234 1.05913 1.03760 1.01761 0.99906 0.98183 0.96584 0.95101 0.93725 0.92452 0.91274 0.90186 0.89184 0.88264 0.87422 0.86653 0.85956 0.85328 0.84766 0.84268 0.83832 0.83458 0.83142 0.82885 0.82685 0.82542 0.84436 7.50004 7.50261 7.51033 7.52323 7.54135 7.56476 7.59353 7.62776 7.66759 7.71315 7.76460 7.82215 7.88600 7.93870 7.39464 6.92483 6.51534 6.15558 5.83726 5.55387 5.30020 5.07201 4.86588 4.67892 4.50878 4.35347 4.21129 4.08082 3.96083 3.85025 3.74819 3.65384 3.56651 3.48559 3.41055 3.34092 3.27628 3.21625 3.16051 3.10877 3.06075 3.01623 2.97500 2.93687 2.90166 2.86923 2.83945 2.81218 2.78732 2.76477 2.74445 2.72628 2.71019 2.69613 2.68404 2.67388 2.66562 2.65922 2.65467 2.65194 2.65103 2.65194 2.65467 2.65922 2.66562 2.67388 2.68404 2.69613 2.40606 2.14327 1.93354 1.76240 1.62020 1.50028 1.39786 1.30945 1.23242 1.16477 1.10493 1.05169 1.00404 0.96120 0.92252 0.88745 0.85556 0.82645 0.79982 0.77540 0.75294 0.73227 0.71319 0.69556 0.67925 0.66415 0.65015 0.63716 0.62511 0.61393 0.60355 0.59392 0.58499 0.57671 0.56905 0.56196 0.55542 0.54940 0.54387 0.53881 0.53420 0.53002 0.52625 0.52288 0.51990 0.51730 0.51506 0.51318 0.51165 0.51046 0.50962 0.50911 0.50894 0.50911 0.50962 0.51046 0.51165 0.51318 0.51506 0.51730 0.51990 0.52288 0.52625 0.53002 0.53420 0.53881 0.54387 0.54940 0.55542 0.56196 0.56905 0.57671 0.58499 0.59392 0.60355 0.61393 0.62511 0.63716 0.65015 0.66415 0.67925 0.69556 0.71319 0.73227 0.75294 0.77540 0.79982 0.82645 0.85556 0.88745 0.92252 0.96120 1.00404 1.05169 1.10493 1.16477 1.23242 1.30945 1.39786 1.50028 1.62020 1.76240 1.93354 2.14327 2.40606 2.74465 3.19696 3.83115 4.78369 5.36676 5.35756 5.35205 0.000000 0.000000 0.000000 0.000000 0.000000 0.000000
FLASER 240 4.86695 4.86862 4.87363 4.88199 4.89375 4.90894 4.92760 4.94981 4.97565 5.00521 5.03860 5.07593 5.11736 5.16303 5.21313 5.26786 5.32744 5.39212 5.46218 5.53793 5.61972 5.70793 5.80299 5.90539 6.01566 6.13442 6.26234 6.40019 6.54883 6.70926 6.88257 7.07005 7.27316 7.49357 7.73323 5.25633 1.01856 0.99999 0.98275 0.96674 0.95189 0.93813 0.92538 0.91358 0.90270 0.89267 0.88346 0.87503 0.86734 0.86036 0.85407 0.84845 0.84346 0.83910 0.83535 0.83219 0.82962 0.82761 0.82618 0.82531 0.82500 0.82524 0.82604 0.82741 0.82934 0.83185 0.83493 0.83861 0.84290 0.84781 0.85335 0.85956 0.86645 0.87405 0.88239 0.89151 0.90143 0.91221 0.92389 0.93652 6.26676 5.99694 5.75320 5.53213 5.33095 5.14729 4.97917 4.82489 4.68299 4.55224 4.43155 4.31999 4.21672 4.12103 4.03229 3.94995 3.87350 3.80252 3.73660 3.67541 3.61863 3.56599 3.51723 3.47213 3.43050 3.39215 3.35692 3.32467 3.29527 3.26861 3.24458 3.22309 3.20407 3.18743 3.17314 3.16112 3.15135 3.14378 3.13840 3.13517 3.13410 3.13517 3.13840 3.14378 3.15135 3.16112 3.17314 2.74465 2.40606 2.14327 1.93354 1.76240 1.62020 1.50028 1.39786 1.30945 1.23242 1.16477 1.10493 1.05169 1.00404 0.96120 0.92252 0.88745 0.85556 0.82645 0.79982 0.77540 0.75294 0.73227 0.71319 0.69556 0.67925 0.66415 0.65015 0.63716 0.62511 0.61393 0.60355 0.59392 0.58499 0.57671 0.56905 0.56196 0.55542 0.54940 0.54387 0.53881 0.53420 0.53002 0.52625 0.52288 0.51990 0.51730 0.51506 0.51318 0.51165 0.51046 0.50962 0.50911 0.50894 0.50911 0.50962 0.51046 0.51165 0.51318 0.51506 0.51730 0.51990 0.52288 0.52625 0.53002 0.53420 0.53881 0.54387 0.54940 0.55542 0.56196 0.56905 0.57671 0.58499 0.59392 0.60355 0.61393 0.62511 0.63716 0.65015 0.66415 0.67925 0.69556 0.71319 0.73227 0.75294 0.77540 0.79982 0.82645 0.85556 0.88745 0.92252 0.96120 1.00404 1.05169 1.10493 1.16477 1.23242 1.30945 1.39786 1.50028 1.62020 1.76240 1.93354 2.14327 2.40606 2.74465 3.19696 3.83115 4.78369 4.88200 4.87363 4.86862 0.000000 0.000000 0.000000 0.000000 0.000000 0.000000
